"distcode","district","commcode","commune","long","lat","type","pop_dens","clinic_id"
"MG23207","Nosy-Varika","MG23207090","Vohilava",48.4226,-20.7099,"CSB1",392.035369873047,1680
"MG51507","Ampanihy Ouest","MG51507030","Ankiliabo",44.7038,-24.6492,"CSB1",13.0291557312012,1681
"MG52514","Tsihombe","MG52514011","Tsihombe",45.4874,-25.3148,"CSB1",1979.59167480469,1682
"MG42423","Mampikony","MG42423052","Ankiririky",47.627,-15.7804,"CSB1",60.2525215148926,1683
"MG51512","Sakaraha","MG51512172","Mitsinjo",44.0064,-22.7901,"CSB1",2.03263068199158,1684
"MG32303","Maroantsetra","MG32303031","Anjanazana",49.6745,-15.3468,"CSB1",105.04061126709,1685
"MG11103","Ambohidratrimo","MG11103330","Mahereza",47.367,-18.9053,"CSB1",402.200622558594,1686
"MG72712","Andapa","MG72712270","Belaoka Lokoho",49.7461,-14.5328,"CSB1",114.19800567627,1687
"MG72712","Andapa","MG72712030","Tanandava",49.6192,-14.6954,"CSB1",1050.39282226562,1688
"MG11107","Anjozorobe","MG11107330","Ambohimirary",47.7241,-18.3316,"CSB1",57.1414451599121,1689
"MG11107","Anjozorobe","MG11107250","Amparatanjona",47.8566,-18.002,"CSB1",15.0070400238037,1690
"MG11107","Anjozorobe","MG11107130","Ambohimanarina Marovazaha",47.7889,-18.2266,"CSB1",14.0593252182007,1691
"MG12110","Ambatolampy","MG12110292","Antakasina",47.725,-19.515,"CSB1",27.3578433990479,1692
"MG12114","Antanifotsy","MG12114171","Ambohitompoina",47.608,-19.7842,"CSB1",107.727996826172,1693
"MG12109","Betafo","MG12109230","Alakamisy Marososona",46.88,-20.0575,"CSB1",19.8988418579102,1694
"MG12109","Betafo","MG12109390","Alarobia Bemaha",46.862,-20.12,"CSB1",60.2196044921875,1695
"MG12109","Betafo","MG12109150","Manohisoa",46.7872,-19.7151,"CSB1",214.150009155273,1696
"MG71713","Antsiranana II","MG71713252","Ambondrona",49.0431,-12.838,"CSB1",22.2872333526611,1697
"MG71713","Antsiranana II","MG71713253","Bobakilandy",49.0474,-12.6236,"CSB1",6.52428007125854,1698
"MG71713","Antsiranana II","MG71713090","Mangaoka",49.0883,-12.4108,"CSB1",77.3735656738281,1699
"MG71719","Ambanja","MG71719173","Maevatanana",48.5313,-13.8822,"CSB1",1119.37854003906,1700
"MG71719","Ambanja","MG71719190","Antafiambotry",48.4756,-13.3502,"CSB1",29.9033718109131,1701
"MG71717","Ambilobe","MG71717172","Ambodibonara",48.8452,-13.1937,"CSB1",493.199401855469,1702
"MG71718","Nosy-Be","MG71718003","Ambatozavavy",48.2766,-13.3147,"CSB1",106.924697875977,1703
"MG72710","Antalaha","MG72710152","Andampy",49.9251,-14.9121,"CSB1",49.8643913269043,1704
"MG31310","Toamasina II","MG31310212","Ampisokina",49.2843,-17.7607,"CSB1",82.8020095825195,1705
"MG72716","Vohemar","MG72716250","Ambinanin'andravory",49.7187,-13.8525,"CSB1",120.346817016602,1706
"MG72716","Vohemar","MG72716310","Antsirabe Nord",49.976,-13.9973,"CSB1",697.922180175781,1707
"MG72716","Vohemar","MG72716150","Tsarabaria",49.8317,-13.776,"CSB1",106.395935058594,1708
"MG21224","Vohibato","MG21224210","Vohibato Ouest",47.124,-21.6029,"CSB1",200.799377441406,1709
"MG21224","Vohibato","MG21224090","Ihazoara",47.2934,-21.5747,"CSB1",46.9210739135742,1710
"MG21208","Ambohimahasoa","MG21208090","Ankafina Tsarafidy",47.2387,-21.2726,"CSB1",134.63639831543,1711
"MG22203","Ambositra","MG22203551","Ambinanindrano",47.5846,-20.7271,"CSB1",318.007476806641,1712
"MG22204","Fandriana","MG22204090","Tsarazaza",47.3112,-20.2148,"CSB1",240.177490234375,1713
"MG31308","Mahanoro","MG31308110","Ambinanidilana",48.4977,-19.8408,"CSB1",113.554885864258,1714
"MG31308","Mahanoro","MG31308170","Ambinanindrano",48.2946,-20.0222,"CSB1",127.243743896484,1715
"MG31308","Mahanoro","MG31308190","Befotaka",48.2905,-20.2943,"CSB1",114.70475769043,1716
"MG25214","Vangaindrano","MG25214312","Vohimalaza",47.4963,-23.7013,"CSB1",84.3761596679688,1717
"MG24216","Ihosy","MG24216033","Tolohomiady",46.1361,-22.4351,"CSB1",177.968276977539,1718
"MG23211","Ikongo","MG23211011","Ikongo",47.4556,-21.8914,"CSB1",330.630889892578,1719
"MG42411","Analalava","MG42411131","Andribavontsona",47.501,-15.3868,"CSB1",97.1136169433594,1720
"MG42409","Port-Berge (Boriziny-Vaovao)","MG42409190","Port Berge II",47.6387,-15.4981,"CSB1",50.5650329589844,1721
"MG42410","Mandritsara","MG42410030","Antanandava",48.8125,-15.8622,"CSB1",109.057319641113,1722
"MG42410","Mandritsara","MG42410212","Tsarajomoka",48.6169,-15.8127,"CSB1",159.426559448242,1723
"MG41407","Mitsinjo","MG41407050","Matsakabanja",45.6041,-16.0184,"CSB1",0.424930363893509,1724
"MG32305","Fenerive Est","MG32305030","Ambodimanga II",49.36,-17.2817,"CSB1",183.988464355469,1725
"MG32305","Fenerive Est","MG32305238","Mahanoro",49.3074,-17.3526,"CSB1",692.826232910156,1726
"MG32303","Maroantsetra","MG32303151","Rantabe",49.6407,-15.7016,"CSB1",938.016723632812,1727
"MG32318","Soanierana Ivongo","MG32318130","Antenina",49.2836,-16.6408,"CSB1",311.493621826172,1728
"MG32315","Vavatenina","MG32315170","Ambodimangavalo",48.9679,-17.5717,"CSB1",36.7110862731934,1729
"MG42414","Bealanana","MG42414010","Bealanana",48.7228,-14.5972,"CSB1",116.546440124512,1730
"MG32304","Mananara-Avaratra","MG32304092","Tanibe",49.498,-16.4049,"CSB1",34.4719581604004,1731
"MG32304","Mananara-Avaratra","MG32304151","Vanono",49.5346,-16.0579,"CSB1",171.341552734375,1732
"MG43404","Maevatanana","MG43404172","Mahatsinjo",46.98,-17.7397,"CSB1",2.50328159332275,1733
"MG43404","Maevatanana","MG43404111","Tsararano",46.9463,-16.6901,"CSB1",20.203254699707,1734
"MG43408","Tsaratanana","MG43408150","Andriamena",47.5364,-17.5332,"CSB1",466.475067138672,1735
"MG44421","Maintirano","MG44421233","Bemokotra Sud",44.0971,-17.4104,"CSB1",10.0918045043945,1736
"MG44417","Ambatomainty","MG44417012","Bemarivo",45.7058,-17.575,"CSB1",18.7766761779785,1737
"MG44417","Ambatomainty","MG44417032","Marotsialeha",45.3345,-17.8206,"CSB1",7.08713579177856,1738
"MG33314","Moramanga","MG33314270","Fierenana",48.3603,-18.3368,"CSB1",10.2520904541016,1739
"MG33314","Moramanga","MG33314291","Mandialaza",48.0913,-18.6028,"CSB1",101.486045837402,1740
"MG32303","Maroantsetra","MG32303032","Manambolo",49.7157,-15.3333,"CSB1",324.952423095703,1741
"MG31306","Brickaville","MG31306050","Anivorano Est",48.9794,-18.7355,"CSB1",920.026123046875,1742
"MG42413","Antsohihy","MG42413190","Maroala",47.8038,-15.3401,"CSB1",328.163970947266,1743
"MG42411","Analalava","MG42411132","Angoaka Sud",47.3359,-15.4267,"CSB1",108.244163513184,1744
"MG42411","Analalava","MG42411190","Antonibe",47.478,-14.7688,"CSB1",3.69005060195923,1745
"MG42414","Bealanana","MG42414213","Ambalaromba",49.3356,-14.6763,"CSB1",45.727596282959,1746
"MG42414","Bealanana","MG42414152","Ambararatabe Nord",48.8229,-14.3873,"CSB1",17.6881637573242,1747
"MG42414","Bealanana","MG42414132","Anjozoromadosy",49.1172,-14.4681,"CSB1",14.6756000518799,1748
"MG42414","Bealanana","MG42414032","Antananivo Haut",48.4965,-14.2375,"CSB1",13.7640571594238,1749
"MG42412","Befandriana Nord","MG42412190","Ankarongana",48.8251,-15.2847,"CSB1",289.411376953125,1750
"MG31309","Marolambo","MG31309150","Amboasary",47.9623,-19.79,"CSB1",123.778495788574,1751
"MG53517","Betroka","MG53517291","Isoanala",45.7184,-23.8371,"CSB1",750.082336425781,1752
"MG54510","Belo Sur Tsiribihina","MG54510151","Belinta",45.1155,-19.9581,"CSB1",129.741622924805,1753
"MG33313","Ambatondrazaka","MG33313151","Andilanatoby",48.2588,-18.0763,"CSB1",48.3124961853027,1754
"MG33312","Amparafaravola","MG33312133","Ambodimanga",48.5139,-17.3366,"CSB1",70.5260238647461,1755
"MG33317","Anosibe-An'ala","MG33317012","Ampasimaneva",48.065,-19.3947,"CSB1",36.738353729248,1756
"MG33317","Anosibe-An'ala","MG33317051","Antandrokomby",47.9787,-19.6028,"CSB1",165.959259033203,1757
"MG33317","Anosibe-An'ala","MG33317071","Longozabe",48.2893,-19.7883,"CSB1",242.745223999023,1758
"MG33317","Anosibe-An'ala","MG33317053","Niarovana Marosampanana",48.0552,-19.5353,"CSB1",201.043701171875,1759
"MG52518","Bekily","MG52518251","Beraketa",45.6745,-24.1832,"CSB1",665.835632324219,1760
"MG51503","Beroroha","MG51503012","Bemavo",45.4321,-21.5697,"CSB1",14.2804470062256,1761
"MG51504","Morombe","MG51504030","Befandefa",43.3033,-22.147,"CSB1",144.125198364258,1762
"MG51512","Sakaraha","MG51512030","Miary Lamatihy",44.4161,-22.8415,"CSB1",58.4467239379883,1763
"MG52518","Bekily","MG52518210","Tanandava",45.5518,-24.3168,"CSB1",12.5651903152466,1764
"MG12110","Ambatolampy","MG12110291","Antanamalaza",47.6277,-19.4275,"CSB2",864.901977539062,32
"MG25213","Farafangana","MG25213270","Ambohigogo",47.5838,-22.7738,"CSB2",361.595642089844,35
"MG25213","Farafangana","MG25213450","Tovona",47.6053,-22.9579,"CSB2",33.599796295166,37
"MG42412","Befandriana Nord","MG42412210","Antsakabary",48.9374,-15.1053,"CSB2",950.620727539062,42
"MG11115","Andramasina","MG11115170","Anosibe Trimoloharano",47.7673,-19.1633,"CSB2",302.209533691406,52
"MG13113","Soavinandriana","MG13113072","Amparibohitra",46.7192,-19.2422,"CSB2",61.2957725524902,53
"MG13105","Arivonimamo","MG13105010","Arivonimamo I",47.1816,-19.0165,"CSB2",3191.93920898438,54
"MG72710","Antalaha","MG72710271","Vinanivao",50.2748,-15.883,"CSB2",404.132934570312,55
"MG25213","Farafangana","MG25213410","Ambalavato Nord",47.5524,-22.6127,"CSB2",50.8792037963867,56
"MG31307","Vatomandry","MG31307092","Iamborano",48.7752,-19.3945,"CSB2",61.5507431030273,58
"MG33312","Amparafaravola","MG33312111","Tanambe",48.4511,-17.3851,"CSB2",2406.07421875,59
"MG52514","Tsihombe","MG52514032","Anjampaly",45.6759,-25.4401,"CSB2",123.574188232422,60
"MG52514","Tsihombe","MG52514072","Imongy",45.7243,-25.2971,"CSB2",133.766479492188,61
"MG11102","Antananarivo Avaradrano","MG11102079","Sabotsy Namehana",47.557,-18.8304,"CSB2",6170.24560546875,71
"MG11117","Antananarivo Atsimondrano","MG11117250","Alatsinainy Ambazaha",47.4584,-18.9758,"CSB2",1172.10290527344,77
"MG11117","Antananarivo Atsimondrano","MG11117450","Ambalavao",47.5277,-19.0973,"CSB2",740.813171386719,78
"MG11117","Antananarivo Atsimondrano","MG11117470","Ambatofahavalo",47.5993,-19.1083,"CSB2",206.512878417969,79
"MG11117","Antananarivo Atsimondrano","MG11117130","Ambavahaditokana",47.4665,-18.9224,"CSB2",9952.3642578125,80
"MG11117","Antananarivo Atsimondrano","MG11117350","Ambohijanaka",47.5621,-18.9995,"CSB2",1394.42468261719,81
"MG11117","Antananarivo Atsimondrano","MG11117370","Ampahitrosy",47.4915,-19.0289,"CSB2",318.815826416016,82
"MG11117","Antananarivo Atsimondrano","MG11117270","Ampanefy",47.4946,-18.9754,"CSB2",3019.45703125,83
"MG11117","Antananarivo Atsimondrano","MG11117011","Ampitatafika",47.4642,-18.9485,"CSB2",3264.12768554688,84
"MG11117","Antananarivo Atsimondrano","MG11117170","Andoharanofotsy",47.533,-18.976,"CSB2",13150.5810546875,85
"MG11117","Antananarivo Atsimondrano","MG11117410","Androhibe",47.464,-19.0101,"CSB2",536.710083007812,87
"MG11117","Antananarivo Atsimondrano","MG11117290","Ankadimanga",47.4619,-18.8945,"CSB2",2934.82934570312,88
"MG11117","Antananarivo Atsimondrano","MG11117190","Ankaraobato",47.5355,-18.9668,"CSB2",13867.8076171875,89
"MG11117","Antananarivo Atsimondrano","MG11117012","Anosizato Andrefana",47.4923,-18.9407,"CSB2",13746.2333984375,90
"MG11117","Antananarivo Atsimondrano","MG11117230","Antanetikely",47.4859,-19.0638,"CSB2",1233.31201171875,91
"MG11117","Antananarivo Atsimondrano","MG11117070","Bemasoandro",47.4867,-18.9077,"CSB2",7093.26953125,92
"MG11117","Antananarivo Atsimondrano","MG11117390","Bongatsara",47.5436,-19.0322,"CSB2",988.570495605469,93
"MG11117","Antananarivo Atsimondrano","MG11117330","Soavina",47.5037,-18.9621,"CSB2",5962.93017578125,94
"MG11117","Antananarivo Atsimondrano","MG11117430","Tsiafahy",47.5581,-19.0677,"CSB2",971.5810546875,96
"MG11101","Antananarivo Renivohitra","MG11101001","1er Arrondissement",47.5166,-18.9092,"CSB2",58107.09765625,101
"MG31310","Toamasina II","MG31310010","Toamasina Suburbaine",49.3511,-18.1571,"CSB2",96.3510131835938,107
"MG11101","Antananarivo Renivohitra","MG11101005","5e Arrondissement",47.5325,-18.8961,"CSB2",38199.640625,111
"MG11101","Antananarivo Renivohitra","MG11101006","6e Arrondissement",47.5009,-18.8746,"CSB2",20531.416015625,119
"MG11101","Antananarivo Renivohitra","MG11101004","4e Arrondissement",47.5,-18.9127,"CSB2",29160.251953125,125
"MG11117","Antananarivo Atsimondrano","MG11117150","Tanjombato",47.5286,-18.9588,"CSB2",22363.294921875,131
"MG11117","Antananarivo Atsimondrano","MG11117110","Itaosy",47.4712,-18.9144,"CSB2",16828.84375,133
"MG11117","Antananarivo Atsimondrano","MG11117311","Fenoarivo",47.4359,-18.9318,"CSB2",3861.92578125,135
"MG11102","Antananarivo Avaradrano","MG11102010","Alasora",47.5685,-18.9582,"CSB2",3407.0224609375,142
"MG11101","Antananarivo Renivohitra","MG11101002","2e Arrondissement",47.5403,-18.9242,"CSB2",33985.41015625,153
"MG11102","Antananarivo Avaradrano","MG11102230","Ambohimalaza Miray",47.637,-18.8961,"CSB2",894.987854003906,175
"MG11102","Antananarivo Avaradrano","MG11102050","Ambohimanambola",47.6004,-18.9428,"CSB2",2299.57446289062,177
"MG11102","Antananarivo Avaradrano","MG11102319","Ambohimanga Rova",47.5583,-18.7703,"CSB2",404.742736816406,179
"MG11102","Antananarivo Avaradrano","MG11102430","Ankadinandriana",47.6628,-19.0604,"CSB2",130.135116577148,181
"MG11102","Antananarivo Avaradrano","MG11102279","Fiaferana",47.6212,-18.84,"CSB2",141.179092407227,182
"MG11102","Antananarivo Avaradrano","MG11102410","Masindray",47.6271,-18.9697,"CSB2",334.34033203125,183
"MG11102","Antananarivo Avaradrano","MG11102379","Talata Volonondry",47.5986,-18.7752,"CSB2",357.804656982422,186
"MG11102","Antananarivo Avaradrano","MG11102039","Ankadikely Ilafy",47.5566,-18.8507,"CSB2",4573.8017578125,190
"MG11102","Antananarivo Avaradrano","MG11102390","Anjeva Gara",47.6581,-18.9427,"CSB2",830.447448730469,195
"MG11102","Antananarivo Avaradrano","MG11102210","Manandriana",47.5873,-18.8074,"CSB2",522.284118652344,197
"MG11103","Ambohidratrimo","MG11103390","Ambato",47.49,-18.595,"CSB2",94.6568374633789,200
"MG11103","Ambohidratrimo","MG11103172","Ambatolampy",47.5173,-18.7981,"CSB2",1273.42846679688,201
"MG11103","Ambohidratrimo","MG11103270","Ambohimanjaka",47.4281,-18.7217,"CSB2",295.018035888672,203
"MG11103","Ambohidratrimo","MG11103370","Ambohipihaonana",47.5678,-18.683,"CSB2",270.844848632812,204
"MG11103","Ambohidratrimo","MG11103130","Ambohitrimanjaka",47.4378,-18.8615,"CSB2",3166.45947265625,205
"MG11103","Ambohidratrimo","MG11103190","Ampangabe",47.4054,-18.8587,"CSB2",615.848327636719,206
"MG11103","Ambohidratrimo","MG11103210","Ampanotokana",47.3105,-18.7276,"CSB2",334.365264892578,208
"MG11103","Ambohidratrimo","MG11103410","Anjanadoria",47.3854,-18.6248,"CSB2",155.339141845703,209
"MG11103","Ambohidratrimo","MG11103030","Anosiala",47.4283,-18.801,"CSB2",1398.78576660156,210
"MG11103","Ambohidratrimo","MG11103350","Antanetibe",47.3614,-18.6873,"CSB2",517.614440917969,211
"MG11103","Ambohidratrimo","MG11103252","Antsahafilo",47.5384,-18.6421,"CSB2",16.5453929901123,213
"MG11103","Ambohidratrimo","MG11103430","Avaratsena",47.5969,-18.6506,"CSB2",88.754524230957,214
"MG11103","Ambohidratrimo","MG11103290","Fiadanana",47.4068,-18.8797,"CSB2",538.926879882812,215
"MG11103","Ambohidratrimo","MG11103112","Ivato Aeroport",47.4813,-18.8065,"CSB2",6625.9287109375,217
"MG11103","Ambohidratrimo","MG11103111","Ivato Firaisana",47.4878,-18.8189,"CSB2",7174.7431640625,218
"MG11103","Ambohidratrimo","MG11103310","Mahabo",47.3367,-18.6439,"CSB2",245.891632080078,219
"MG11103","Ambohidratrimo","MG11103150","Mahitsy",47.3483,-18.7574,"CSB2",2694.49194335938,221
"MG11103","Ambohidratrimo","MG11103251","Manjakavaradrano",47.4866,-18.6955,"CSB2",155.259963989258,223
"MG11103","Ambohidratrimo","MG11103171","Merimandroso",47.5089,-18.7547,"CSB2",478.488922119141,224
"MG11103","Ambohidratrimo","MG11103050","Talatamaty",47.4605,-18.8403,"CSB2",11857.1923828125,225
"MG11103","Ambohidratrimo","MG11103010","Ambohidratrimo",47.4426,-18.8174,"CSB2",5278.72265625,230
"MG14111","Tsiroanomandidy","MG14111290","Bemahatazana",45.9464,-19.0442,"CSB2",323.432922363281,232
"MG14119","Fenoarivobe","MG14119071","Ambohitromby",46.4038,-17.9113,"CSB2",27.5608539581299,233
"MG14119","Fenoarivobe","MG14119031","Firavahana",46.8862,-18.6273,"CSB2",216.100280761719,237
"MG14119","Fenoarivobe","MG14119051","Kiranomena",46.0517,-18.2965,"CSB2",204.165725708008,239
"MG14119","Fenoarivobe","MG14119053","Mahajeby",45.9968,-18.0466,"CSB2",108.663230895996,240
"MG14119","Fenoarivobe","MG14119052","Tsinjoarivo 22",45.8516,-18.3482,"CSB2",139.933624267578,242
"MG13112","Miarinarivo","MG13112112","Alatsinainikely",46.5657,-18.9332,"CSB2",45.8125114440918,243
"MG13112","Miarinarivo","MG13112050","Ambatomanjaka",46.8666,-18.8736,"CSB2",505.910919189453,244
"MG13112","Miarinarivo","MG13112111","Analavory",46.716,-18.9734,"CSB2",3433.4072265625,245
"MG13112","Miarinarivo","MG13112210","Andolofotsy",46.6389,-18.747,"CSB2",311.054565429688,246
"MG13112","Miarinarivo","MG13112151","Anosibe Ifanja",46.7528,-18.8829,"CSB2",1037.85522460938,247
"MG13112","Miarinarivo","MG13112071","Manazary",46.868,-19.0489,"CSB2",791.191162109375,248
"MG13112","Miarinarivo","MG13112130","Mandiavato",47.0229,-19.092,"CSB2",267.664855957031,249
"MG13112","Miarinarivo","MG13112030","Miarinarivo II",46.9766,-18.9578,"CSB2",26.7023124694824,250
"MG13112","Miarinarivo","MG13112090","Soamahamanina",47.0167,-18.9903,"CSB2",211.179214477539,251
"MG13112","Miarinarivo","MG13112190","Soavimbazaha",47.0384,-18.8093,"CSB2",241.451232910156,252
"MG13112","Miarinarivo","MG13112170","Zoma Bealoka",47.0555,-18.8569,"CSB2",255.207946777344,253
"MG13105","Arivonimamo","MG13105213","Alakamisikely",47.16,-19.1971,"CSB2",311.292266845703,254
"MG13105","Arivonimamo","MG13105190","Ambatomanga",47.2118,-18.8257,"CSB2",74.8703765869141,255
"MG13105","Arivonimamo","MG13105170","Ambatomirahavavy",47.393,-18.9356,"CSB2",350.347198486328,256
"MG13105","Arivonimamo","MG13105090","Amboanana",47.1725,-19.1381,"CSB2",589.72314453125,257
"MG13105","Arivonimamo","MG13105230","Ambohimandry",47.3712,-19.0946,"CSB2",608.90966796875,258
"MG13105","Arivonimamo","MG13105270","Ambohimasina",47.2687,-18.8247,"CSB2",149.158126831055,259
"MG13105","Arivonimamo","MG13105291","Ambohipandrano",47.338,-19.133,"CSB2",196.13720703125,260
"MG13105","Arivonimamo","MG13105050","Ambohitrambo",47.1787,-18.9221,"CSB2",171.086654663086,261
"MG13105","Arivonimamo","MG13105070","Ampahimanga",47.1974,-19.1047,"CSB2",514.369750976562,262
"MG13105","Arivonimamo","MG13105250","Antambolo",47.3183,-18.8325,"CSB2",256.827453613281,263
"MG13105","Arivonimamo","MG13105216","Rambolamasoandro Andranomiely",47.1542,-19.3197,"CSB2",133.841369628906,264
"MG13113","Soavinandriana","MG13113210","Ambatoasana Centre",46.3845,-19.2009,"CSB2",109.009902954102,265
"MG13113","Soavinandriana","MG13113132","Amberomanga",46.6166,-19.2402,"CSB2",36.4252891540527,266
"MG13113","Soavinandriana","MG13113131","Amparaky",46.6299,-19.3079,"CSB2",189.909759521484,267
"MG13113","Soavinandriana","MG13113030","Ampary",46.7098,-19.095,"CSB2",1040.78393554688,268
"MG13113","Soavinandriana","MG13113090","Ampefy",46.734,-19.044,"CSB2",955.459289550781,269
"MG13113","Soavinandriana","MG13113150","Ankaranana",46.6209,-19.0495,"CSB2",645.889099121094,270
"MG13113","Soavinandriana","MG13113190","Ankisabe",46.4805,-19.2955,"CSB2",231.659515380859,271
"MG33316","Andilamena","MG33316031","Antanimenabaka",48.4902,-16.938,"CSB2",595.265197753906,272
"MG13113","Soavinandriana","MG13113012","Dondona",46.8514,-19.1706,"CSB2",68.7424697875977,273
"MG13113","Soavinandriana","MG13113170","Mahavelona",46.5254,-19.1712,"CSB2",421.326629638672,274
"MG13113","Soavinandriana","MG13113071","Masindray",46.7343,-19.2736,"CSB2",246.081939697266,275
"MG13113","Soavinandriana","MG13113230","Tamponala",46.405,-19.3043,"CSB2",630.442749023438,277
"MG13105","Arivonimamo","MG13105211","Manalalondo",47.1127,-19.2569,"CSB2",1010.00561523438,278
"MG12108","Antsirabe I","MG12108003","Soamalaza Mahatsinjo",47.0431,-19.8758,"CSB2",9150.7109375,279
"MG12108","Antsirabe I","MG12108004","Antsirabe Afovoany Atsinanana",47.0448,-19.9273,"CSB2",415.356018066406,280
"MG12108","Antsirabe I","MG12108002","Ampatana Mandriankeniheny",47.0035,-19.9325,"CSB2",991.971496582031,283
"MG12108","Antsirabe I","MG12108005","Manodidina Ny Gara Ambilombe",47.0381,-19.8489,"CSB2",7071.73388671875,285
"MG12108","Antsirabe I","MG12108006","Mahazoarivo Avarabohitra",47.0319,-19.8533,"CSB2",12768.0244140625,286
"MG72712","Andapa","MG72712170","Matsohely",49.5671,-14.6197,"CSB2",525.716918945312,287
"MG72712","Andapa","MG72712050","Ankiakabe Nord",49.5913,-14.6737,"CSB2",974.707458496094,289
"MG72712","Andapa","MG72712110","Marovato",49.6356,-14.6078,"CSB2",888.613586425781,291
"MG72710","Antalaha","MG72710170","Ambalabe",50.4222,-15.1609,"CSB2",167.104385375977,292
"MG72710","Antalaha","MG72710190","Ambinanifaho",50.1191,-14.6124,"CSB2",872.510986328125,293
"MG25213","Farafangana","MG25213110","Ivandrika",47.722,-22.882,"CSB2",713.968200683594,294
"MG25213","Farafangana","MG25213472","Namohora Iaborano",47.6399,-22.6279,"CSB2",237.445358276367,295
"MG25213","Farafangana","MG25213551","Ihorombe",47.5328,-23.0131,"CSB2",163.398468017578,296
"MG25213","Farafangana","MG25213310","Mahabo Mananivo",47.682,-23.1831,"CSB2",89.6445236206055,298
"MG25213","Farafangana","MG25213170","Mahafasa Centre",47.6767,-22.688,"CSB2",562.457214355469,299
"MG25213","Farafangana","MG25213150","Mahavelo",47.6999,-22.7047,"CSB2",356.702056884766,300
"MG25213","Farafangana","MG25213290","Maheriraty",47.6139,-22.7545,"CSB2",356.717193603516,301
"MG25213","Farafangana","MG25213130","Manambotra Atsimo",47.8107,-22.9282,"CSB2",342.438690185547,302
"MG25213","Farafangana","MG25213590","Marovandrika",47.6659,-22.5178,"CSB2",119.733955383301,303
"MG25213","Farafangana","MG25213490","Sahamadio",47.5761,-22.5205,"CSB2",338.860565185547,304
"MG25213","Farafangana","MG25213230","Tangainony",47.7432,-22.6995,"CSB2",1523.54333496094,305
"MG25213","Farafangana","MG25213570","Vohilengo",47.6936,-22.5489,"CSB2",458.558929443359,306
"MG25213","Farafangana","MG25213030","Vohimasy",47.7235,-22.8031,"CSB2",88.3900527954102,307
"MG25213","Farafangana","MG25213090","Vohitromby",47.763,-22.8788,"CSB2",834.020080566406,308
"MG25222","Befotaka","MG25222032","Antaninarenina",46.94,-23.9456,"CSB2",229.016387939453,309
"MG25222","Befotaka","MG25222012","Antondabe",47.1398,-23.853,"CSB2",108.531852722168,310
"MG25222","Befotaka","MG25222011","Befotaka Sud",46.9883,-23.823,"CSB2",118.488128662109,311
"MG25222","Befotaka","MG25222053","Bekofafa Sud",46.5837,-23.7647,"CSB2",119.574745178223,313
"MG25222","Befotaka","MG25222031","Marovitsika Sud",46.8943,-24.0385,"CSB2",84.679573059082,314
"MG11115","Andramasina","MG11115110","Alarobia Vatosola",47.7501,-19.2284,"CSB2",535.764892578125,315
"MG11115","Andramasina","MG11115071","Alatsinainy Bakaro",47.6811,-19.3225,"CSB2",1415.50122070312,317
"MG11115","Andramasina","MG11115032","Andohariana",47.5757,-19.3139,"CSB2",150.163375854492,319
"MG11115","Andramasina","MG11115010","Andramasina",47.5888,-19.1866,"CSB2",796.604736328125,320
"MG11115","Andramasina","MG11115072","Antotohazo",47.6153,-19.3687,"CSB2",132.888305664062,322
"MG11115","Andramasina","MG11115130","Fitsinjovana Bakaro",47.7318,-19.3906,"CSB2",280.986114501953,323
"MG11115","Andramasina","MG11115050","Mandrosoa",47.6666,-19.1618,"CSB2",394.204040527344,324
"MG11115","Andramasina","MG11115031","Sabotsy Ambohitromby",47.6118,-19.2379,"CSB2",510.228485107422,325
"MG11115","Andramasina","MG11115150","Sabotsy Manjakavahoaka",47.7537,-19.1706,"CSB2",99.6534271240234,326
"MG11107","Anjozorobe","MG11107170","Alakamisy",47.9331,-18.5371,"CSB2",184.91455078125,328
"MG11107","Anjozorobe","MG11107230","Ambatomanoina",47.6255,-18.3121,"CSB2",515.970031738281,329
"MG11107","Anjozorobe","MG11107270","Amboasary Nord",47.7674,-18.1182,"CSB2",41.8324546813965,330
"MG11107","Anjozorobe","MG11107310","Ambohibary Vohilena",47.6219,-18.2191,"CSB2",630.555114746094,331
"MG11107","Anjozorobe","MG11107099","Ambongamarina",47.8026,-18.2963,"CSB2",127.675720214844,333
"MG11107","Anjozorobe","MG11107190","Analaroa",47.7087,-18.4126,"CSB2",187.963760375977,335
"MG11107","Anjozorobe","MG11107211","Antanetibe",47.5574,-18.3963,"CSB2",1210.38403320312,339
"MG11107","Anjozorobe","MG11107370","Beronono",47.5172,-18.1861,"CSB2",89.3644790649414,340
"MG11107","Anjozorobe","MG11107150","Betatao",47.8875,-18.2025,"CSB2",144.584121704102,341
"MG11107","Anjozorobe","MG11107070","Mangamila",47.8617,-18.5659,"CSB2",365.406585693359,342
"MG11107","Anjozorobe","MG11107350","Marotsipoy",47.6621,-17.9281,"CSB2",79.2620697021484,343
"MG11107","Anjozorobe","MG11107110","Tsarasaotra",47.9141,-18.5578,"CSB2",614.555236816406,344
"MG11104","Ankazobe","MG11104170","Ambolotarakely",47.4018,-18.2703,"CSB2",43.0344619750977,345
"MG11104","Ankazobe","MG11104190","Antakavana",47.3838,-18.0349,"CSB2",15.1240272521973,347
"MG11104","Ankazobe","MG11104071","Antotohazo",47.0956,-18.5196,"CSB2",230.304092407227,348
"MG11104","Ankazobe","MG11104130","Fiadanana",46.8852,-18.2231,"CSB2",247.864700317383,349
"MG22204","Fandriana","MG22204070","Fiadanana",47.4076,-20.3343,"CSB2",352.262237548828,350
"MG11104","Ankazobe","MG11104210","Kiangara",47.0296,-17.9709,"CSB2",807.903930664062,351
"MG11104","Ankazobe","MG11104110","Mahavelona",47.2542,-18.514,"CSB2",222.053817749023,352
"MG11104","Ankazobe","MG11104072","Marondry",47.0027,-18.4347,"CSB2",209.385513305664,353
"MG11104","Ankazobe","MG11104230","Miantso",47.1522,-18.7189,"CSB2",333.191925048828,354
"MG11104","Ankazobe","MG11104030","Talata Angavo",47.0991,-18.2092,"CSB2",264.118347167969,355
"MG11104","Ankazobe","MG11104150","Tsaramasoandro",47.2172,-17.9613,"CSB2",26.5291881561279,356
"MG11104","Ankazobe","MG11104050","Ambohitromby",47.1631,-18.4928,"CSB2",22.4156055450439,357
"MG11106","Manjakandriana","MG11106090","Alarobia",47.7236,-18.9665,"CSB2",557.919799804688,358
"MG11106","Manjakandriana","MG11106210","Ambanitsena",47.689,-18.8746,"CSB2",606.941833496094,360
"MG11106","Manjakandriana","MG11106012","Ambatolaona",47.8811,-18.9289,"CSB2",204.344696044922,361
"MG11106","Manjakandriana","MG11106070","Ambatomanga",47.7377,-18.9654,"CSB2",224.378021240234,362
"MG11106","Manjakandriana","MG11106251","Ambatomena",47.7572,-18.7823,"CSB2",307.637664794922,364
"MG11106","Manjakandriana","MG11106252","Ambohibao Sud",47.746,-18.7491,"CSB2",412.284606933594,365
"MG11106","Manjakandriana","MG11106050","Ambohibary",47.8196,-18.8467,"CSB2",186.685073852539,366
"MG11106","Manjakandriana","MG11106230","Ambohitrandriamanitra",47.7799,-19.0878,"CSB2",362.229278564453,367
"MG11106","Manjakandriana","MG11106371","Ambohitrolomahitsy",47.6797,-18.7069,"CSB2",722.253845214844,368
"MG11106","Manjakandriana","MG11106372","Ampaneva",47.6704,-18.7483,"CSB2",428.694091796875,369
"MG11106","Manjakandriana","MG11106290","Ambohitrony",47.7689,-18.7485,"CSB2",557.568603515625,370
"MG11106","Manjakandriana","MG11106190","Anjepy",47.7325,-18.8483,"CSB2",324.961669921875,371
"MG11102","Antananarivo Avaradrano","MG11102350","Viliahazo",47.6933,-18.8109,"CSB2",358.097778320312,372
"MG11106","Manjakandriana","MG11106351","Ankazondandy",47.7959,-18.6984,"CSB2",1066.98474121094,373
"MG11106","Manjakandriana","MG11106272","Antsahalalina",47.7944,-18.7619,"CSB2",263.039672851562,375
"MG11106","Manjakandriana","MG11106170","Nandihizana",47.7062,-18.907,"CSB2",397.947418212891,376
"MG11106","Manjakandriana","MG11106310","Merikanjaka",47.8329,-19.1383,"CSB2",140.286895751953,379
"MG11106","Manjakandriana","MG11106150","Miadanandriana",47.7914,-19.0372,"CSB2",678.962890625,380
"MG11106","Manjakandriana","MG11106130","Ranovao",47.815,-18.8276,"CSB2",187.444152832031,381
"MG11106","Manjakandriana","MG11106390","Sadabe",47.71,-18.6174,"CSB2",426.437896728516,382
"MG11106","Manjakandriana","MG11106030","Sambaina",47.7828,-18.8927,"CSB2",613.665832519531,383
"MG11106","Manjakandriana","MG11106352","Soavinandriana",47.8709,-18.697,"CSB2",224.461471557617,384
"MG14111","Tsiroanomandidy","MG14111250","Ambalanirana",46.5189,-18.7577,"CSB2",836.292358398438,386
"MG14111","Tsiroanomandidy","MG14111210","Ambararatabe",46.192,-18.986,"CSB2",117.703247070312,387
"MG14111","Tsiroanomandidy","MG14111051","Ambatolampy",46.1289,-18.8949,"CSB2",323.749328613281,388
"MG14111","Tsiroanomandidy","MG14111090","Ankadinondry Sakay",46.463,-18.974,"CSB2",259.383209228516,390
"MG14111","Tsiroanomandidy","MG14111110","Ankerana Avaratra",46.119,-18.585,"CSB2",11.848653793335,391
"MG14111","Tsiroanomandidy","MG14111190","Anosy",46.43,-18.8284,"CSB2",71.3349685668945,392
"MG14111","Tsiroanomandidy","MG14111230","Belobaka",45.6921,-18.9945,"CSB2",821.599670410156,393
"MG14111","Tsiroanomandidy","MG14111070","Bevato",46.2573,-18.6935,"CSB2",356.729095458984,395
"MG14111","Tsiroanomandidy","MG14111310","Fierenana",45.8461,-18.5455,"CSB2",401.280212402344,396
"MG14111","Tsiroanomandidy","MG14111270","Mahasolo",46.3671,-19.1218,"CSB2",764.759094238281,397
"MG14111","Tsiroanomandidy","MG14111052","Maritampona",46.1131,-19.0371,"CSB2",132.381744384766,398
"MG14111","Tsiroanomandidy","MG14111330","Maroharona",46.2932,-19.2764,"CSB2",26.12912940979,399
"MG14111","Tsiroanomandidy","MG14111130","Miandrarivo",45.9897,-18.9372,"CSB2",18.9820194244385,400
"MG14111","Tsiroanomandidy","MG14111170","Soanierana",46.2513,-18.6341,"CSB2",52.7694473266602,401
"MG14111","Tsiroanomandidy","MG14111150","Tsinjoarivo Imanga",46.3196,-18.933,"CSB2",130.004318237305,402
"MG14111","Tsiroanomandidy","MG14111030","Tsiroanomandidy Fihaonana",46.0107,-18.6152,"CSB2",70.7025527954102,403
"MG13105","Arivonimamo","MG13105212","Antenimbe",47.1071,-19.214,"CSB2",107.058036804199,406
"MG13105","Arivonimamo","MG13105030","Arivonimamo II",47.1657,-19.0149,"CSB2",252.070724487305,407
"MG13105","Arivonimamo","MG13105215","Marofangady",47.0834,-19.3164,"CSB2",140.055511474609,410
"MG13105","Arivonimamo","MG13105292","Miandrandra",47.2705,-19.2203,"CSB2",61.2490081787109,411
"MG13105","Arivonimamo","MG13105310","Miantsoarivo",47.4052,-19.1997,"CSB2",383.488342285156,412
"MG13105","Arivonimamo","MG13105110","Morafeno",47.0966,-19.0919,"CSB2",52.7918968200684,413
"MG13105","Arivonimamo","MG13105150","Morarano",47.303,-18.9132,"CSB2",359.739837646484,414
"MG12118","Antsirabe II","MG12118050","Alakamisy",46.9856,-19.8046,"CSB2",217.626525878906,416
"MG12118","Antsirabe II","MG12118010","Ambano",47.0292,-19.6975,"CSB2",107.702453613281,417
"MG12118","Antsirabe II","MG12118310","Ambatomena",47.3018,-19.8176,"CSB2",71.1162643432617,418
"MG12118","Antsirabe II","MG12118130","Ambohidranandriana",47.1703,-19.904,"CSB2",160.576614379883,420
"MG12118","Antsirabe II","MG12118150","Ambohimiarivo",47.1646,-19.8351,"CSB2",97.7213821411133,422
"MG12118","Antsirabe II","MG12118110","Andranomanelatra",47.112,-19.7744,"CSB2",289.828796386719,423
"MG12118","Antsirabe II","MG12118170","Ambohitsimanova",47.1416,-20.0246,"CSB2",52.7368202209473,425
"MG12118","Antsirabe II","MG12118370","Antanambao",47.3911,-19.9577,"CSB2",174.396286010742,426
"MG12118","Antsirabe II","MG12118070","Antanimandry",46.9634,-19.8538,"CSB2",915.368041992188,427
"MG12118","Antsirabe II","MG12118230","Antsoatany",47.1561,-19.699,"CSB2",137.872924804688,429
"MG12118","Antsirabe II","MG12118030","Belazao",46.9681,-19.8935,"CSB2",547.002868652344,430
"MG12118","Antsirabe II","MG12118250","Alatsinainy Ibity",46.9645,-20.1985,"CSB2",23.5466537475586,431
"MG12118","Antsirabe II","MG12118210","Manandona",47.0615,-20.0627,"CSB2",182.895599365234,432
"MG12118","Antsirabe II","MG12118332","Mandrosohasina",47.1756,-19.5853,"CSB2",324.613800048828,433
"MG12118","Antsirabe II","MG12118190","Mangarano",46.979,-19.962,"CSB2",124.266189575195,434
"MG12118","Antsirabe II","MG12118270","Sahanivotry Manandona",47.0588,-20.1361,"CSB2",54.0986518859863,435
"MG12118","Antsirabe II","MG12118290","Soanindrariny",47.236,-19.906,"CSB2",949.913696289062,436
"MG12118","Antsirabe II","MG12118350","Tsarahonenana Sahanivotry",47.268,-19.994,"CSB2",154.700958251953,437
"MG12118","Antsirabe II","MG12118090","Vinaninkarena",47.0421,-19.9735,"CSB2",133.6201171875,438
"MG12110","Ambatolampy","MG12110090","Ambatondrakalavao",47.5081,-19.4511,"CSB2",548.757446289062,441
"MG12110","Ambatolampy","MG12110190","Ambodifarihy Fenomanana",47.5626,-19.4672,"CSB2",373.277618408203,442
"MG12110","Ambatolampy","MG12110050","Ambohipihaonana",47.4143,-19.4432,"CSB2",1297.40417480469,443
"MG12110","Ambatolampy","MG12110330","Andranovelona",47.6271,-19.628,"CSB2",167.771835327148,444
"MG12110","Ambatolampy","MG12110150","Andravola Vohipeno",47.3743,-19.4086,"CSB2",441.512451171875,445
"MG12110","Ambatolampy","MG12110110","Andriambilany",47.466,-19.3304,"CSB2",119.257911682129,446
"MG12110","Ambatolampy","MG12110230","Antanimasaka",47.5633,-19.4035,"CSB2",256.526611328125,448
"MG12110","Ambatolampy","MG12110270","Antsampandrano",47.5917,-19.5432,"CSB2",562.009582519531,449
"MG12110","Ambatolampy","MG12110250","Behenjy",47.4873,-19.2101,"CSB2",809.680236816406,450
"MG12110","Ambatolampy","MG12110130","Belambo Firaisana",47.5131,-19.3553,"CSB2",247.625503540039,451
"MG12110","Ambatolampy","MG12110070","Manjakatompo",47.4481,-19.3465,"CSB2",40.4390449523926,452
"MG12110","Ambatolampy","MG12110030","Morarano",47.4569,-19.4186,"CSB2",606.721740722656,453
"MG12110","Ambatolampy","MG12110210","Sabotsy Namatoana",47.371,-19.3113,"CSB2",172.739852905273,454
"MG12110","Ambatolampy","MG12110170","Tsiafajavona Ankaratra",47.3333,-19.3795,"CSB2",207.806411743164,455
"MG12110","Ambatolampy","MG12110310","Tsinjoarivo",47.6857,-19.6351,"CSB2",326.402923583984,456
"MG12114","Antanifotsy","MG12114030","Ambatolahy",47.2864,-19.7318,"CSB2",266.332946777344,457
"MG12114","Antanifotsy","MG12114079","Ambatomiady",47.4161,-19.6936,"CSB2",247.334762573242,458
"MG12114","Antanifotsy","MG12114150","Ambatotsipihina",47.2376,-19.458,"CSB2",43.3209228515625,459
"MG12114","Antanifotsy","MG12114230","Ambodiriana",47.5531,-19.5731,"CSB2",127.174209594727,461
"MG12114","Antanifotsy","MG12114050","Ampitatafika",47.3574,-19.5648,"CSB2",559.363708496094,463
"MG12114","Antanifotsy","MG12114090","Andranofito",47.4558,-19.8288,"CSB2",47.1962661743164,464
"MG12114","Antanifotsy","MG12114199","Antsahalava",47.4661,-19.5609,"CSB2",396.374694824219,469
"MG12114","Antanifotsy","MG12114290","Antsampandrano",47.5714,-19.9531,"CSB2",72.6620941162109,470
"MG12114","Antanifotsy","MG12114172","Belanitra",47.7342,-19.7258,"CSB2",25.1903495788574,471
"MG12114","Antanifotsy","MG12114110","Ambohimandroso",47.4315,-19.5199,"CSB2",2587.07983398438,472
"MG12109","Betafo","MG12109070","Alakamisy Anativato",46.9066,-19.8818,"CSB2",208.469253540039,473
"MG12109","Betafo","MG12109170","Ambatonikolahy",46.9412,-19.7264,"CSB2",52.7917098999023,474
"MG12109","Betafo","MG12109050","Mandritsara",46.9061,-19.8355,"CSB2",288.003601074219,475
"MG12109","Betafo","MG12109250","Ambohimanambola",46.5717,-19.8439,"CSB2",17.6236190795898,476
"MG12109","Betafo","MG12109270","Ambohimasina",46.7643,-19.6073,"CSB2",54.937671661377,477
"MG12109","Betafo","MG12109490","Andrembesoa",46.5496,-20.1097,"CSB2",4.48362016677856,478
"MG12120","Mandoto","MG12120070","Anjoma Ramartina",45.9446,-19.6422,"CSB2",117.673690795898,479
"MG12109","Betafo","MG12109212","Anosiarivo Manapa",46.7702,-20.0545,"CSB2",11.2572822570801,481
"MG12120","Mandoto","MG12120050","Antanambao Ambary",46.2139,-19.5946,"CSB2",261.417724609375,482
"MG12109","Betafo","MG12109190","Antohobe",46.6924,-19.7639,"CSB2",80.0511016845703,483
"MG12109","Betafo","MG12109090","Antsoso",46.8548,-19.7739,"CSB2",393.363433837891,484
"MG12120","Mandoto","MG12120030","Betsohana",46.387,-19.448,"CSB2",10.7075481414795,486
"MG12120","Mandoto","MG12120110","Fidirana",46.5661,-19.5119,"CSB2",836.673095703125,487
"MG12109","Betafo","MG12109290","Inanantonana",46.6406,-19.6235,"CSB2",49.7290573120117,488
"MG12109","Betafo","MG12109211","Mahaiza",46.8387,-19.9441,"CSB2",10.139063835144,489
"MG12120","Mandoto","MG12120010","Mandoto",46.2919,-19.5803,"CSB2",789.923645019531,490
"MG12109","Betafo","MG12109130","Soavina",46.7589,-19.8331,"CSB2",123.697372436523,491
"MG12109","Betafo","MG12109110","Tritriva",46.9262,-19.925,"CSB2",673.547119140625,492
"MG12120","Mandoto","MG12120150","Vinany",46.4857,-19.6126,"CSB2",164.001129150391,493
"MG12120","Mandoto","MG12120130","Vasiana",46.2345,-19.8253,"CSB2",0.428099125623703,494
"MG12116","Faratsiho","MG12116130","Ambohiborona",47.0784,-19.3533,"CSB2",215.143630981445,496
"MG12116","Faratsiho","MG12116170","Valabetokana",46.7561,-19.332,"CSB2",67.5532302856445,497
"MG12116","Faratsiho","MG12116090","Andranomiady",46.9573,-19.2137,"CSB2",77.6512908935547,498
"MG12116","Faratsiho","MG12116030","Antsampanimahazo",47.041,-19.4172,"CSB2",183.482650756836,499
"MG12116","Faratsiho","MG12116150","Miandrarivo",46.752,-19.4436,"CSB2",166.930938720703,501
"MG12116","Faratsiho","MG12116070","Ramainandro",47.0019,-19.3073,"CSB2",496.338104248047,502
"MG12116","Faratsiho","MG12116110","Vinaninony Atsimo",47.0328,-19.5254,"CSB2",322.711242675781,503
"MG12116","Faratsiho","MG12116050","Faravohitra",47.0169,-19.4831,"CSB2",215.395553588867,504
"MG71713","Antsiranana II","MG71713110","Andrafiabe",49.4051,-12.5273,"CSB2",65.4937362670898,505
"MG71713","Antsiranana II","MG71713191","Andranofanjava",49.0419,-12.4797,"CSB2",17.0547103881836,506
"MG71713","Antsiranana II","MG71713170","Andranovondronina",49.3119,-12.1187,"CSB2",17.2684230804443,507
"MG71713","Antsiranana II","MG71713231","Anivorano Nord",49.2323,-12.7416,"CSB2",223.776992797852,508
"MG71713","Antsiranana II","MG71713210","Ankarongana",49.3942,-12.6667,"CSB2",39.630672454834,509
"MG71713","Antsiranana II","MG71713130","Anketrakabe",49.3454,-12.5528,"CSB2",74.6740188598633,510
"MG71713","Antsiranana II","MG71713050","Antsahampano",49.1888,-12.325,"CSB2",36.947639465332,511
"MG71713","Antsiranana II","MG71713152","Antsalaka",49.2512,-12.6404,"CSB2",43.1259613037109,512
"MG71713","Antsiranana II","MG71713251","Bobasakoa",48.96,-12.81,"CSB2",25.3949184417725,513
"MG71713","Antsiranana II","MG71713070","Mahavanona",49.3808,-12.46,"CSB2",226.797958374023,514
"MG71713","Antsiranana II","MG71713254","Mosorolava",48.9796,-12.762,"CSB2",63.5060539245605,515
"MG71713","Antsiranana II","MG71713010","Ramena",49.3478,-12.2427,"CSB2",395.818115234375,516
"MG71713","Antsiranana II","MG71713151","Sadjoavato",49.3485,-12.6335,"CSB2",362.014190673828,517
"MG71719","Ambanja","MG71719130","Ambalahonko",48.471,-13.5283,"CSB2",72.6844329833984,520
"MG71719","Ambanja","MG71719250","Ambaliha",48.1564,-13.7645,"CSB2",10.4313173294067,521
"MG71719","Ambanja","MG71719172","Ambodimanga Ramena",48.4955,-13.7635,"CSB2",314.106414794922,522
"MG71719","Ambanja","MG71719233","Ambohimarina",48.4972,-13.888,"CSB2",828.019226074219,523
"MG71719","Ambanja","MG71719231","Marovato",48.5604,-13.9689,"CSB2",70.7511596679688,525
"MG71719","Ambanja","MG71719350","Ankatafa",48.3695,-13.639,"CSB2",391.638427734375,526
"MG71719","Ambanja","MG71719150","Ankingameloka",48.298,-13.8169,"CSB2",290.752685546875,527
"MG71719","Ambanja","MG71719310","Anorontsangana",47.9222,-13.9154,"CSB2",40.1443748474121,528
"MG71719","Ambanja","MG71719091","Antranokarany",48.3869,-13.7268,"CSB2",437.917510986328,529
"MG71719","Ambanja","MG71719110","Antsakoamanondro",48.5043,-13.6105,"CSB2",560.587219238281,530
"MG71719","Ambanja","MG71719070","Antsatsaka",48.4001,-13.7081,"CSB2",337.770629882812,531
"MG71719","Ambanja","MG71719330","Antsirabe",48.1978,-13.8745,"CSB2",51.7068252563477,532
"MG71719","Ambanja","MG71719171","Bemaneviky Haut Sambirano",48.4931,-13.841,"CSB2",2167.68994140625,533
"MG71719","Ambanja","MG71719290","Bemaneviky Ouest",47.9681,-13.5246,"CSB2",24.162446975708,534
"MG71719","Ambanja","MG71719092","Djangoa",48.3242,-13.8025,"CSB2",178.806777954102,535
"MG71719","Ambanja","MG71719210","Maherivaratra",48.5669,-13.5272,"CSB2",60.2441368103027,536
"MG71719","Ambanja","MG71719270","Marotolana",48.614,-14.0241,"CSB2",603.777587890625,537
"MG71719","Ambanja","MG71719232","Ambohitrandriana",48.635,-13.9076,"CSB2",4.40204668045044,538
"MG71717","Ambilobe","MG71717090","Ambakirano",49.1541,-13.209,"CSB2",727.748352050781,541
"MG71717","Ambilobe","MG71717231","Ambarakaraka",48.8484,-13.5137,"CSB2",105.159172058105,542
"MG71717","Ambilobe","MG71717110","Ambatoben'anjavy",49.0522,-13.2311,"CSB2",25.0642032623291,543
"MG71717","Ambilobe","MG71717050","Ampondralava",48.8897,-13.1954,"CSB2",49.1517143249512,544
"MG71717","Ambilobe","MG71717232","Anaborano Ifasy",48.8221,-13.5491,"CSB2",223.925964355469,545
"MG71717","Ambilobe","MG71717171","Anjiabe Ambony",48.8668,-13.222,"CSB2",331.191162109375,546
"MG71717","Ambilobe","MG71717130","Antsaravibe",48.9641,-12.921,"CSB2",75.7975158691406,547
"MG71717","Ambilobe","MG71717150","Antsohimbondrona",48.8588,-13.0927,"CSB2",269.433258056641,548
"MG71717","Ambilobe","MG71717210","Betsiaka",49.4017,-13.0714,"CSB2",148.637680053711,550
"MG71717","Ambilobe","MG71717233","Manambato",49.1167,-13.7,"CSB2",3.48078203201294,551
"MG71717","Ambilobe","MG71717030","Mantaly",48.9769,-13.179,"CSB2",169.225997924805,552
"MG71717","Ambilobe","MG71717070","Tanambao Marivorahona",49.1048,-13.0862,"CSB2",612.459899902344,554
"MG71717","Ambilobe","MG71717190","Beramanja",48.8136,-13.3627,"CSB2",661.276672363281,555
"MG71718","Nosy-Be","MG71718005","Dzamandzar",48.1921,-13.3525,"CSB2",3037.15991210938,556
"MG71718","Nosy-Be","MG71718004","Bemanondrobe",48.311,-13.2889,"CSB2",113.162445068359,557
"MG71718","Nosy-Be","MG71718002","Ampangorina",48.3484,-13.4427,"CSB2",942.590942382812,559
"MG72711","Sambava","MG72711450","Ambatoafo",49.679,-14.1138,"CSB2",298.353668212891,560
"MG72711","Sambava","MG72711371","Amboangibe",49.8107,-14.1456,"CSB2",1886.94091796875,561
"MG72711","Sambava","MG72711410","Ambodiampana",49.8528,-14.528,"CSB2",770.913513183594,562
"MG72711","Sambava","MG72711130","Ambodivoara",49.9828,-14.3401,"CSB2",232.675338745117,563
"MG72711","Sambava","MG72711059","Ambohimalaza",50.0304,-14.2969,"CSB2",752.56640625,564
"MG72711","Sambava","MG72711210","Ambohimitsinjo",49.9315,-14.3215,"CSB2",674.421630859375,565
"MG72711","Sambava","MG72711190","Analamaho",49.9445,-14.2117,"CSB2",171.335815429688,566
"MG72711","Sambava","MG72711330","Andrahanjo",49.8253,-14.3149,"CSB2",477.339477539062,567
"MG72711","Sambava","MG72711250","Andratamarina",49.901,-14.3552,"CSB2",521.571105957031,568
"MG72711","Sambava","MG72711372","Andrembona",49.7912,-14.2023,"CSB2",882.743774414062,569
"MG72711","Sambava","MG72711230","Anjangoveratra",50.0608,-14.1239,"CSB2",65.2087478637695,570
"MG72711","Sambava","MG72711470","Anjialava",49.7313,-14.0817,"CSB2",283.063812255859,571
"MG72711","Sambava","MG72711150","Anjinjaomby",49.9701,-14.3022,"CSB2",367.724090576172,572
"MG72711","Sambava","MG72711390","Antindra",49.8112,-14.1347,"CSB2",941.211730957031,573
"MG72711","Sambava","MG72711510","Antsahavaribe",49.6519,-14.0312,"CSB2",379.235565185547,574
"MG72711","Sambava","MG72711310","Antsambaharo",49.9474,-14.5058,"CSB2",167.960372924805,575
"MG72711","Sambava","MG72711350","Bemanevika",50.1258,-14.1409,"CSB2",563.466491699219,576
"MG72711","Sambava","MG72711530","Bevonotra",49.6108,-14.0724,"CSB2",129.962066650391,577
"MG72711","Sambava","MG72711079","Farahalana",50.1547,-14.4251,"CSB2",901.021423339844,578
"MG72711","Sambava","MG72711430","Maroambihy",49.8434,-14.5072,"CSB2",588.405395507812,579
"MG72711","Sambava","MG72711270","Marogaona",49.8851,-14.1922,"CSB2",440.747253417969,580
"MG72711","Sambava","MG72711290","Marojala",50.0325,-14.4691,"CSB2",697.827209472656,581
"MG72711","Sambava","MG72711170","Morafeno",50.0468,-14.3669,"CSB2",722.872253417969,582
"MG72711","Sambava","MG72711090","Nosiarina",50.0482,-14.2159,"CSB2",235.967529296875,583
"MG72711","Sambava","MG72711490","Tanambao Daoud",50.1112,-13.9866,"CSB2",696.952514648438,584
"MG72712","Andapa","MG72712210","Ambalamanasy II",49.5871,-14.5287,"CSB2",1906.46398925781,587
"MG72712","Andapa","MG72712230","Ambodiangezoka",49.5095,-14.5987,"CSB2",1662.01062011719,588
"MG72712","Andapa","MG72712090","Ambodimanga I",49.6144,-14.6996,"CSB2",1099.72119140625,589
"MG72712","Andapa","MG72712130","Andrakata",49.7167,-14.6287,"CSB2",296.766021728516,590
"MG72712","Andapa","MG72712190","Andranomena",49.5352,-14.6045,"CSB2",1909.99084472656,591
"MG72712","Andapa","MG72712330","Anjialavabe",49.4904,-14.1901,"CSB2",260.990356445312,592
"MG72712","Andapa","MG72712290","Anoviara",49.8336,-14.7419,"CSB2",119.450942993164,593
"MG72712","Andapa","MG72712350","Antsahamena",49.7797,-14.9371,"CSB2",44.9790229797363,594
"MG72712","Andapa","MG72712150","Bealampona",49.5662,-14.6551,"CSB2",1539.66967773438,595
"MG72712","Andapa","MG72712070","Belaoka Marovato",49.5933,-14.5935,"CSB2",533.268615722656,596
"MG72712","Andapa","MG72712250","Betsakotsako Andranotsara",49.5566,-14.5659,"CSB2",637.434143066406,597
"MG72712","Andapa","MG72712310","Doany",49.5155,-14.3744,"CSB2",1179.74938964844,598
"MG72710","Antalaha","MG72710210","Ambohitralanana",50.4595,-15.2487,"CSB2",456.839447021484,599
"MG72710","Antalaha","MG72710110","Antananambo",50.1244,-14.8676,"CSB2",534.725219726562,603
"MG72710","Antalaha","MG72710070","Antombana",50.1393,-14.9991,"CSB2",353.494873046875,604
"MG72710","Antalaha","MG72710090","Antsahanoro",50.1421,-14.8403,"CSB2",92.08154296875,605
"MG72710","Antalaha","MG72710250","Antsambalahy",49.959,-14.7708,"CSB2",194.287628173828,606
"MG72710","Antalaha","MG72710230","Lanjarivo",50.0754,-14.6115,"CSB2",928.777770996094,607
"MG72710","Antalaha","MG72710130","Marofinaritra",50.1174,-15.0349,"CSB2",426.86474609375,608
"MG72710","Antalaha","MG72710151","Sarahandrano",50.0222,-14.8267,"CSB2",132.990585327148,609
"MG72710","Antalaha","MG72710050","Ampohibe",50.2995,-15.0337,"CSB2",265.883392333984,610
"MG72710","Antalaha","MG72710030","Ampahana",50.2212,-14.7627,"CSB2",334.335388183594,611
"MG72716","Vohemar","MG72716130","Ambalasatrana",49.6993,-13.7438,"CSB2",205.331283569336,612
"MG31310","Toamasina II","MG31310070","Ambodiriana",49.2716,-17.9334,"CSB2",259.797119140625,613
"MG31310","Toamasina II","MG31310092","Amboditandroroho",49.2762,-18.3293,"CSB2",25.1957378387451,614
"MG31310","Toamasina II","MG31310091","Ampasimadinika Manambolo",49.1978,-18.4441,"CSB2",293.006408691406,615
"MG31310","Toamasina II","MG31310170","Ampasimbe Onibe",49.4664,-17.5991,"CSB2",127.243438720703,616
"MG31310","Toamasina II","MG31310192","Amporoforo",49.1518,-17.8406,"CSB2",42.453197479248,617
"MG31310","Toamasina II","MG31310211","Andondabe",49.3777,-17.7656,"CSB2",297.806915283203,618
"MG31310","Toamasina II","MG31310230","Andranobolaha",49.0385,-18.3145,"CSB2",178.056945800781,619
"MG31310","Toamasina II","MG31310193","Antenina",48.975,-17.7893,"CSB2",30.3683967590332,620
"MG31310","Toamasina II","MG31310030","Antetezambaro",49.3873,-18.0697,"CSB2",297.900695800781,621
"MG31310","Toamasina II","MG31310050","Fanandrana",49.267,-18.2591,"CSB2",146.010467529297,623
"MG31310","Toamasina II","MG31310250","Fito",48.7694,-17.9893,"CSB2",1.18552887439728,624
"MG31310","Toamasina II","MG31310191","Mangabe",49.2337,-17.7266,"CSB2",80.7957153320312,626
"MG31310","Toamasina II","MG31310130","Sahambala",49.1767,-17.955,"CSB2",175.872024536133,627
"MG42410","Mandritsara","MG42410211","Ambalakirajy",48.4238,-15.7933,"CSB2",31.5589370727539,628
"MG42410","Mandritsara","MG42410171","Ambarikorano",48.9866,-15.8948,"CSB2",153.300857543945,629
"MG42410","Mandritsara","MG42410191","Ambaripaika",48.98,-15.7591,"CSB2",145.121978759766,630
"MG42410","Mandritsara","MG42410270","Ambilombe",49.0256,-15.5445,"CSB2",144.886779785156,631
"MG42410","Mandritsara","MG42410130","Amboaboa",48.7194,-15.945,"CSB2",181.943237304688,632
"MG42410","Mandritsara","MG42410391","Ambodiadabo",48.5899,-16.1817,"CSB2",144.898834228516,633
"MG42410","Mandritsara","MG42410192","Ambodiamontana Kianga",48.9368,-15.8092,"CSB2",352.019226074219,634
"MG42410","Mandritsara","MG42410330","Ambohisoa",48.2945,-15.9079,"CSB2",104.559036254883,635
"MG42410","Mandritsara","MG42410392","Amborondolo",48.4852,-16.0995,"CSB2",8.68336772918701,636
"MG42410","Mandritsara","MG42410150","Manampaneva",48.6812,-16.0513,"CSB2",6.46364688873291,637
"MG42410","Mandritsara","MG42410350","Ampatakamaroreny",48.7948,-16.4964,"CSB2",59.6936416625977,638
"MG42410","Mandritsara","MG42410290","Andohajango",48.4962,-15.9085,"CSB2",104.278717041016,639
"MG42410","Mandritsara","MG42410172","Andratamarina",49.0494,-15.8552,"CSB2",30.1454181671143,640
"MG42410","Mandritsara","MG42410310","Anjiabe",48.3509,-15.597,"CSB2",24.1062870025635,641
"MG42410","Mandritsara","MG42410371","Ankiabe-Salohy",48.7341,-15.6105,"CSB2",10.3674345016479,642
"MG42410","Mandritsara","MG42410410","Antanambaon'amberina",49.1128,-16.409,"CSB2",91.8664627075195,643
"MG42410","Mandritsara","MG42410231","Antsatramidola",48.9677,-15.6333,"CSB2",78.2175903320312,644
"MG42410","Mandritsara","MG42410112","Antsiatsiaka",49.1094,-16.0592,"CSB2",17.6977596282959,645
"MG42410","Mandritsara","MG42410111","Antsirabe Centre",48.9652,-15.9552,"CSB2",378.125762939453,646
"MG42410","Mandritsara","MG42410050","Antsoha",48.8028,-15.7698,"CSB2",98.743408203125,647
"MG42410","Mandritsara","MG42410090","Kalandy",48.7435,-15.8306,"CSB2",162.441390991211,648
"MG42410","Mandritsara","MG42410250","Marotandrano",48.8403,-16.1767,"CSB2",901.125305175781,649
"MG42410","Mandritsara","MG42410372","Pont Sofia",48.6482,-15.4953,"CSB2",114.649169921875,650
"MG42410","Mandritsara","MG42410070","Tsaratanana",48.8373,-15.9593,"CSB2",591.000366210938,651
"MG72716","Vohemar","MG72716330","Ampisikinana",49.804,-12.947,"CSB2",101.872619628906,653
"MG72716","Vohemar","MG72716210","Andrafainkona",49.4665,-13.7422,"CSB2",295.287719726562,655
"MG72716","Vohemar","MG72716190","Andravory",49.6034,-13.8669,"CSB2",111.035697937012,656
"MG72716","Vohemar","MG72716232","Ambodisambalahy",49.8466,-13.8119,"CSB2",396.080169677734,657
"MG72716","Vohemar","MG72716350","Belambo",49.856,-14.021,"CSB2",592.123840332031,658
"MG72716","Vohemar","MG72716090","Bobakindro",49.6819,-13.4734,"CSB2",177.401016235352,659
"MG72716","Vohemar","MG72716110","Daraina",49.659,-13.205,"CSB2",281.371520996094,660
"MG72716","Vohemar","MG72716050","Fanambana",49.9878,-13.5538,"CSB2",411.451538085938,661
"MG72716","Vohemar","MG72716290","Maromokotra Loky",49.4739,-13.0082,"CSB2",82.867317199707,662
"MG72716","Vohemar","MG72716070","Milanoa",49.7803,-13.5866,"CSB2",50.8200263977051,663
"MG72716","Vohemar","MG72716170","Nosibe",49.7948,-13.1766,"CSB2",12.1044139862061,664
"MG72716","Vohemar","MG72716010","Vohemar",49.9918,-13.3737,"CSB2",824.740600585938,665
"MG72716","Vohemar","MG72716270","Amboriala",49.4313,-13.846,"CSB2",32.045280456543,666
"MG21201","Fianarantsoa I","MG21201005","Manolafaka",47.0762,-21.4147,"CSB2",564.378051757812,668
"MG21201","Fianarantsoa I","MG21201001","Tanana Ambony",47.0885,-21.4556,"CSB2",17391.98828125,669
"MG21201","Fianarantsoa I","MG21201007","Vatosola",47.057,-21.4455,"CSB2",511.432708740234,670
"MG21201","Fianarantsoa I","MG21201006","Lalazana",47.0602,-21.4859,"CSB2",935.739501953125,672
"MG21201","Fianarantsoa I","MG21201003","Andrainjato Avaratra",47.1036,-21.448,"CSB2",5473.7197265625,673
"MG21224","Vohibato","MG21224050","Alakamisy Itenina",47.1569,-21.6461,"CSB2",680.534240722656,681
"MG21220","Lalangina","MG21220030","Ambalakely",47.1661,-21.4188,"CSB2",1207.91247558594,682
"MG21220","Lalangina","MG21220210","Ambalamahasoa",47.1428,-21.3396,"CSB2",134.871353149414,683
"MG21225","Isandra","MG21225090","Ambalamidera II",46.8542,-21.3301,"CSB2",453.587036132812,684
"MG21225","Isandra","MG21225070","Ambondrona",46.9934,-21.267,"CSB2",231.130416870117,685
"MG21225","Isandra","MG21225050","Andoharanomaitso",46.9488,-21.4709,"CSB2",703.802429199219,686
"MG21220","Lalangina","MG21220011","Andrainjato Centre",47.139,-21.4948,"CSB2",391.339569091797,687
"MG21220","Lalangina","MG21220012","Andrainjato Est",47.1838,-21.5438,"CSB2",532.027770996094,688
"MG21224","Vohibato","MG21224230","Andranomiditra",47.2725,-21.6393,"CSB2",418.152954101562,689
"MG21224","Vohibato","MG21224190","Andranovorivato",46.9902,-21.628,"CSB2",738.0078125,690
"MG21220","Lalangina","MG21220330","Androy",47.2715,-21.3315,"CSB2",319.326324462891,691
"MG21225","Isandra","MG21225030","Anjoma Itsara",46.9169,-21.2205,"CSB2",324.691986083984,692
"MG21225","Isandra","MG21225110","Ankarinarivo Manirisoa",47.0359,-21.3916,"CSB2",423.653533935547,693
"MG21220","Lalangina","MG21220430","Fandrandava",47.2452,-21.521,"CSB2",649.8525390625,694
"MG21225","Isandra","MG21225190","Fanjakana",46.8875,-21.1815,"CSB2",876.60546875,695
"MG21220","Lalangina","MG21220350","Alatsinainy Ialamarina",47.3035,-21.5285,"CSB2",532.03369140625,696
"MG21225","Isandra","MG21225210","Iavonomby Vohibola",47.0671,-21.3259,"CSB2",758.3154296875,697
"MG21225","Isandra","MG21225010","Isorana",46.9333,-21.3194,"CSB2",364.949829101562,698
"MG21220","Lalangina","MG21220070","Ivoamba",47.1492,-21.3946,"CSB2",388.14892578125,699
"MG21224","Vohibato","MG21224270","Mahaditra",47.0958,-21.7682,"CSB2",731.770446777344,700
"MG21225","Isandra","MG21225170","Mahazoarivo",46.8226,-21.3733,"CSB2",321.030578613281,704
"MG21224","Vohibato","MG21224150","Maneva",47.0749,-21.5797,"CSB2",367.576080322266,705
"MG21225","Isandra","MG21225150","Nasandratrony",47.0333,-21.3556,"CSB2",608.53466796875,706
"MG21220","Lalangina","MG21220112","Sahambavy",47.257,-21.4408,"CSB2",408.114135742188,707
"MG21224","Vohibato","MG21224250","Soaindrana",47.0415,-21.5149,"CSB2",229.21858215332,708
"MG21224","Vohibato","MG21224070","Talata Ampano",47.0375,-21.5633,"CSB2",1051.78601074219,710
"MG21224","Vohibato","MG21224030","Vinanitelo",47.2627,-21.7361,"CSB2",444.118286132812,711
"MG21224","Vohibato","MG21224130","Vohimarina",46.9062,-21.6283,"CSB2",406.285766601562,712
"MG21220","Lalangina","MG21220090","Taindambo",47.1822,-21.4437,"CSB2",532.03173828125,713
"MG21205","Ambalavao","MG21205190","Ambinanindovoka",47.095,-21.9338,"CSB2",615.838256835938,715
"MG21205","Ambalavao","MG21205212","Ambinaniroa",46.4929,-21.9072,"CSB2",257.508544921875,716
"MG21205","Ambalavao","MG21205230","Ambohimahamasina",47.1757,-21.9356,"CSB2",399.852905273438,717
"MG21205","Ambalavao","MG21205071","Ambohimandroso",46.9606,-21.892,"CSB2",401.994964599609,718
"MG21205","Ambalavao","MG21205072","Andrainjato",46.9865,-21.9119,"CSB2",130.21858215332,719
"MG21205","Ambalavao","MG21205090","Anjoma",47.0338,-21.8879,"CSB2",305.358337402344,720
"MG21205","Ambalavao","MG21205211","Ankaramena",46.6417,-21.9466,"CSB2",321.041870117188,721
"MG21205","Ambalavao","MG21205150","Besoa",46.7728,-21.9104,"CSB2",143.139266967773,722
"MG21205","Ambalavao","MG21205290","Fenoarivo",46.3862,-21.7189,"CSB2",110.65510559082,723
"MG21205","Ambalavao","MG21205050","Iarintsena",46.8801,-21.8282,"CSB2",520.294067382812,724
"MG21205","Ambalavao","MG21205110","Kirano",47.0248,-21.8394,"CSB2",141.844100952148,725
"MG21205","Ambalavao","MG21205170","Mahazony",47.0264,-21.9885,"CSB2",131.700836181641,726
"MG21205","Ambalavao","MG21205030","Manamisoa",46.9712,-21.7759,"CSB2",44.6530418395996,727
"MG21205","Ambalavao","MG21205250","Miarinarivo",47.0568,-22.0678,"CSB2",127.467781066895,728
"MG21205","Ambalavao","MG21205130","Sendrisoa",46.9501,-22.0016,"CSB2",512.427490234375,729
"MG21205","Ambalavao","MG21205270","Vohitsaoka",46.7246,-22.0346,"CSB2",299.49072265625,730
"MG21208","Ambohimahasoa","MG21208072","Ambalakindresy",47.3313,-21.1215,"CSB2",103.724807739258,732
"MG21208","Ambohimahasoa","MG21208230","Ambohinamboarina",47.0517,-21.0321,"CSB2",280.099182128906,734
"MG21208","Ambohimahasoa","MG21208030","Ampitana",47.2178,-21.1306,"CSB2",586.875671386719,735
"MG21208","Ambohimahasoa","MG21208050","Ankerana",47.1664,-21.1184,"CSB2",304.898376464844,737
"MG21208","Ambohimahasoa","MG21208270","Befeta",47.0489,-21.2326,"CSB2",512.164672851562,738
"MG21208","Ambohimahasoa","MG21208252","Camp Robin",47.1409,-20.9296,"CSB2",1037.26110839844,739
"MG21208","Ambohimahasoa","MG21208290","Fiadanana",47.1773,-20.8747,"CSB2",462.040130615234,740
"MG21208","Ambohimahasoa","MG21208211","Isaka",47.0166,-21.1396,"CSB2",644.972106933594,741
"MG21208","Ambohimahasoa","MG21208150","Ikalalao",47.109,-21.1824,"CSB2",565.499145507812,742
"MG21208","Ambohimahasoa","MG21208071","Manandroy",47.2687,-21.1367,"CSB2",384.946624755859,743
"MG21208","Ambohimahasoa","MG21208130","Morafeno",47.2912,-21.2051,"CSB2",616.806091308594,744
"MG21208","Ambohimahasoa","MG21208190","Ambatosoa",47.2549,-20.9698,"CSB2",55.9460754394531,745
"MG21208","Ambohimahasoa","MG21208251","Sahatona",47.102,-20.9622,"CSB2",83.9359436035156,746
"MG21208","Ambohimahasoa","MG21208110","Sahave",47.1156,-21.0796,"CSB2",191.536575317383,747
"MG21208","Ambohimahasoa","MG21208170","Vohiposa",47.1619,-20.9957,"CSB2",995.218322753906,748
"MG21208","Ambohimahasoa","MG21208212","Vohitrarivo",46.9629,-21.0906,"CSB2",142.558837890625,749
"MG21219","Ikalamavony","MG21219070","Ambatomainty",46.4472,-20.8997,"CSB2",143.583358764648,750
"MG21219","Ikalamavony","MG21219090","Fitampito",46.3083,-20.9648,"CSB2",90.7385559082031,751
"MG21219","Ikalamavony","MG21219030","Mangidy",46.7958,-21.2544,"CSB2",438.061340332031,753
"MG21219","Ikalamavony","MG21219110","Tanamarina Sakay",46.6027,-21.4679,"CSB2",36.6821823120117,754
"MG21219","Ikalamavony","MG21219050","Solila",46.6171,-21.417,"CSB2",116.355056762695,755
"MG21219","Ikalamavony","MG21219150","Tanamarina Bekisopa",45.8858,-21.645,"CSB2",0.911100804805756,756
"MG21219","Ikalamavony","MG21219130","Tsitondroina",46.2454,-21.2867,"CSB2",2.43724822998047,757
"MG22203","Ambositra","MG22203210","Alakamisy Ambohijato",47.3152,-20.5673,"CSB2",885.051147460938,758
"MG22203","Ambositra","MG22203250","Ambalamanakana",47.1825,-20.7415,"CSB2",224.301116943359,759
"MG22203","Ambositra","MG22203390","Ambatofitorahana",47.1822,-20.8177,"CSB2",361.224426269531,760
"MG22203","Ambositra","MG22203450","Sahatsiho Ambohimanjaka",47.0916,-20.2011,"CSB2",443.688568115234,761
"MG22203","Ambositra","MG22203491","Ambohimitombo I",47.3904,-20.6791,"CSB2",118.919204711914,762
"MG22203","Ambositra","MG22203492","Ambohimitombo II",47.4466,-20.6116,"CSB2",69.2612457275391,763
"MG22203","Ambositra","MG22203030","Ambositra II",47.2624,-20.5186,"CSB2",488.804290771484,766
"MG22203","Ambositra","MG22203090","Andina",47.156,-20.5253,"CSB2",648.53564453125,767
"MG22203","Ambositra","MG22203050","Ankazoambo",47.2356,-20.5709,"CSB2",664.275634765625,768
"MG22203","Ambositra","MG22203410","Antoetra",47.3175,-20.7754,"CSB2",318.323516845703,769
"MG22203","Ambositra","MG22203190","Fahizay",47.3367,-20.5099,"CSB2",218.056549072266,770
"MG22203","Ambositra","MG22203310","Ihadilanana",47.0362,-20.4549,"CSB2",185.503509521484,771
"MG22203","Ambositra","MG22203290","Ilaka Centre",47.1409,-20.3266,"CSB2",353.8037109375,772
"MG22203","Ambositra","MG22203110","Imerina Imady",47.3209,-20.527,"CSB2",694.400207519531,773
"MG22203","Ambositra","MG22203130","Ivato",47.2004,-20.627,"CSB2",137.330276489258,774
"MG22203","Ambositra","MG22203070","Ivony Miaramiasa",47.2001,-20.5644,"CSB2",314.952758789062,775
"MG22203","Ambositra","MG22203230","Kianjandrakefina",47.3481,-20.6161,"CSB2",226.776229858398,776
"MG22203","Ambositra","MG22203430","Mahazina Ambohipierenana",47.0698,-20.3445,"CSB2",6.99374961853027,777
"MG22203","Ambositra","MG22203170","Marosoa",47.3652,-20.5424,"CSB2",247.235427856445,778
"MG22203","Ambositra","MG22203150","Tsarasaotra",47.2119,-20.4444,"CSB2",386.881195068359,780
"MG22203","Ambositra","MG22203552","Vohidahy",47.5527,-20.5594,"CSB2",194.488739013672,781
"MG22202","Ambatofinandrahana","MG22202110","Ambatomifanongoa",46.9164,-20.206,"CSB2",194.047760009766,785
"MG22202","Ambatofinandrahana","MG22202090","Ambondromisotra",46.9045,-20.3241,"CSB2",197.973983764648,786
"MG22223","Manandriana","MG22223172","Andakatany",47.0106,-20.5076,"CSB2",195.260528564453,787
"MG22202","Ambatofinandrahana","MG22202130","Amborompotsy",46.2465,-20.6062,"CSB2",463.23779296875,788
"MG22202","Ambatofinandrahana","MG22202050","Fenoarivo",46.8779,-20.8697,"CSB2",474.279541015625,789
"MG22202","Ambatofinandrahana","MG22202030","Itremo",46.6357,-20.5945,"CSB2",153.527648925781,790
"MG22202","Ambatofinandrahana","MG22202150","Mandrosonoro",46.0004,-20.5912,"CSB2",431.797729492188,791
"MG22202","Ambatofinandrahana","MG22202170","Mangataboahangy",46.1913,-20.2658,"CSB2",132.390991210938,792
"MG22202","Ambatofinandrahana","MG22202070","Soavina",46.9143,-20.3832,"CSB2",1053.72326660156,793
"MG22204","Fandriana","MG22204210","Alakamisy Ambohimahazo",47.3836,-20.4744,"CSB2",436.455169677734,794
"MG22204","Fandriana","MG22204130","Ankarinoro",47.4832,-20.3267,"CSB2",176.401657104492,795
"MG22204","Fandriana","MG22204192","Betsimisotra",47.5133,-20.2848,"CSB2",104.005302429199,796
"MG22204","Fandriana","MG22204230","Imito",47.3323,-20.4209,"CSB2",398.173431396484,799
"MG22204","Fandriana","MG22204170","Mahazoarivo",47.4128,-20.3965,"CSB2",503.103881835938,800
"MG22204","Fandriana","MG22204030","Milamaina",47.3902,-20.2652,"CSB2",475.571868896484,801
"MG22204","Fandriana","MG22204191","Miarinavaratra",47.5,-20.2167,"CSB2",221.225738525391,802
"MG22204","Fandriana","MG22204050","Sahamadio Fisakana",47.4,-20.2981,"CSB2",632.82080078125,803
"MG22204","Fandriana","MG22204150","Sandrandahy",47.295,-20.3517,"CSB2",966.644958496094,804
"MG22204","Fandriana","MG22204110","Tatamalaza",47.4448,-20.2037,"CSB2",389.872314453125,805
"MG22223","Manandriana","MG22223171","Ambatomarina",47.0203,-20.5715,"CSB2",452.492279052734,806
"MG22223","Manandriana","MG22223030","Ambohimahazo",47.0728,-20.6917,"CSB2",316.309020996094,807
"MG22223","Manandriana","MG22223070","Ambohimilanja",47.0425,-20.702,"CSB2",318.679870605469,808
"MG22223","Manandriana","MG22223090","Ambohipo",47.0123,-20.8448,"CSB2",47.4816284179688,809
"MG22223","Manandriana","MG22223050","Anjoma Nandihizana",47.119,-20.8345,"CSB2",264.993286132812,811
"MG22223","Manandriana","MG22223110","Anjoman'ankona",47.1053,-20.6552,"CSB2",826.661010742188,812
"MG22223","Manandriana","MG22223150","Talata Vohimena",46.9673,-20.863,"CSB2",255.191650390625,813
"MG22223","Manandriana","MG22223130","Vinany Andakatanikely",47.0637,-20.6419,"CSB2",408.868316650391,814
"MG25213","Farafangana","MG25213471","Ambalatany",47.5861,-22.5368,"CSB2",1090.6533203125,815
"MG25213","Farafangana","MG25213330","Ambohimandroso",47.5033,-22.7455,"CSB2",103.168014526367,816
"MG25213","Farafangana","MG25213190","Amporoforo",47.795,-22.4546,"CSB2",137.565765380859,817
"MG25213","Farafangana","MG25213350","Ankarana Miraihina",47.6305,-23.0852,"CSB2",553.276672363281,818
"MG25213","Farafangana","MG25213050","Anosivelo",47.7882,-22.7405,"CSB2",593.015075683594,819
"MG25213","Farafangana","MG25213070","Anosy Tsararafa",47.8098,-22.7241,"CSB2",619.604797363281,820
"MG25213","Farafangana","MG25213530","Antseranambe",47.6463,-23.1704,"CSB2",311.664001464844,821
"MG25213","Farafangana","MG25213250","Beretra Bevoay",47.6038,-22.7223,"CSB2",621.010803222656,822
"MG25213","Farafangana","MG25213430","Efatsy",47.6102,-23.1128,"CSB2",306.496887207031,823
"MG25213","Farafangana","MG25213390","Etrotroka Atsimo",47.5885,-22.8899,"CSB2",617.302429199219,824
"MG25213","Farafangana","MG25213370","Evato",47.6872,-22.6161,"CSB2",170.021469116211,825
"MG25213","Farafangana","MG25213510","Fenoarivo",47.5704,-23.1265,"CSB2",187.425964355469,827
"MG25222","Befotaka","MG25222051","Ranotsara Sud",46.6507,-23.7325,"CSB2",479.436553955078,828
"MG25215","Midongy-Atsimo","MG25215031","Andranolalina",46.9911,-23.4713,"CSB2",208.742660522461,829
"MG25215","Midongy-Atsimo","MG25215012","Ankazovelo",47.007,-23.6576,"CSB2",440.309356689453,830
"MG25215","Midongy-Atsimo","MG25215051","Ivondro",46.9578,-23.192,"CSB2",11.1227769851685,831
"MG25215","Midongy-Atsimo","MG25215052","Soakibany",46.9615,-22.9283,"CSB2",287.867858886719,833
"MG25215","Midongy-Atsimo","MG25215032","Maliorano",47.0444,-23.3093,"CSB2",48.745044708252,834
"MG25214","Vangaindrano","MG25214212","Ambatolava",47.2889,-23.5728,"CSB2",30.8353157043457,835
"MG25214","Vangaindrano","MG25214211","Ambongo",47.2532,-23.4292,"CSB2",184.637161254883,836
"MG25214","Vangaindrano","MG25214331","Amparihy Est",47.333,-23.9721,"CSB2",68.1100006103516,837
"MG25214","Vangaindrano","MG25214031","Ampasimalemy",47.5644,-23.3335,"CSB2",415.252960205078,838
"MG25214","Vangaindrano","MG25214132","Ampataka",47.463,-23.3542,"CSB2",165.22575378418,839
"MG25214","Vangaindrano","MG25214112","Anilobe",47.4776,-23.1996,"CSB2",615.618469238281,840
"MG31311","Antanambao Manampontsy","MG31311010","Antanambao Manampontsy",48.5749,-19.4832,"CSB2",128.766403198242,841
"MG31311","Antanambao Manampontsy","MG31311070","Antanandehibe",48.3514,-19.6788,"CSB2",37.0348815917969,842
"MG31311","Antanambao Manampontsy","MG31311090","Manakana",48.393,-19.7299,"CSB2",11.8464221954346,844
"MG31311","Antanambao Manampontsy","MG31311050","Saivaza",48.5853,-19.6645,"CSB2",36.0133094787598,845
"MG31308","Mahanoro","MG31308130","Ambodibonara",48.516,-20.3188,"CSB2",50.6838722229004,846
"MG31308","Mahanoro","MG31308050","Ambodiharina",48.7702,-20.0105,"CSB2",506.051330566406,847
"MG31308","Mahanoro","MG31308150","Ankazotsifantatra",48.5033,-19.9862,"CSB2",229.185211181641,848
"MG31308","Mahanoro","MG31308012","Betsizaraina",48.7557,-19.9609,"CSB2",1350.48046875,849
"MG31308","Mahanoro","MG31308070","Manjakandriana",48.5711,-19.8079,"CSB2",79.4522399902344,851
"MG31308","Mahanoro","MG31308090","Masomeloka",48.6262,-20.2849,"CSB2",87.1638870239258,852
"MG31308","Mahanoro","MG31308030","Tsaravinany",48.6543,-19.7535,"CSB2",255.417892456055,853
"MG31309","Marolambo","MG31309071","Ambalapaiso II",47.8886,-20.0223,"CSB2",489.0439453125,855
"MG31309","Marolambo","MG31309110","Ambatofisaka II",47.9041,-20.0671,"CSB2",225.869140625,856
"MG31309","Marolambo","MG31309191","Ambodinonoka",47.8096,-20.3597,"CSB2",136.353134155273,858
"MG31309","Marolambo","MG31309072","Ambodivoangy",47.8613,-20.0177,"CSB2",231.295761108398,859
"MG31309","Marolambo","MG31309090","Ambohimilanja",47.9795,-19.9344,"CSB2",242.236724853516,860
"MG31309","Marolambo","MG31309050","Andonabe Sud",48.1971,-19.9228,"CSB2",29.8933334350586,861
"MG31309","Marolambo","MG31309131","Androrangavola",47.92,-20.1595,"CSB2",210.325103759766,862
"MG31309","Marolambo","MG31309132","Anosiarivo I",47.902,-20.2041,"CSB2",134.110565185547,863
"MG31309","Marolambo","MG31309031","Betampona",48.0674,-20.2078,"CSB2",102.573936462402,865
"MG23209","Mananjary","MG23209230","Vohilava",48.0077,-21.0778,"CSB2",730.016052246094,866
"MG25214","Vangaindrano","MG25214251","Bevata",47.2766,-23.309,"CSB2",103.528388977051,869
"MG25214","Vangaindrano","MG25214290","Fenoambany",47.5491,-23.8267,"CSB2",481.706298828125,870
"MG25214","Vangaindrano","MG25214230","Iara",47.4423,-23.0813,"CSB2",54.4469108581543,871
"MG25214","Vangaindrano","MG25214311","Isahara",47.3559,-23.7214,"CSB2",42.3570861816406,872
"MG25214","Vangaindrano","MG25214332","Sandravinany",47.4406,-24.0393,"CSB2",629.682678222656,873
"MG25214","Vangaindrano","MG25214252","Karimbary",47.2533,-23.2261,"CSB2",18.5338573455811,874
"MG25214","Vangaindrano","MG25214131","Lohafary",47.4756,-23.2638,"CSB2",215.872192382812,875
"MG25214","Vangaindrano","MG25214091","Lopary",47.6708,-23.2011,"CSB2",321.861206054688,876
"MG25214","Vangaindrano","MG25214270","Manambondro",47.5447,-23.8006,"CSB2",1460.34912109375,877
"MG25214","Vangaindrano","MG25214172","Marokibo",47.5504,-23.6814,"CSB2",105.044456481934,878
"MG25214","Vangaindrano","MG25214152","Masianaka",47.5943,-23.5956,"CSB2",264.332672119141,879
"MG25214","Vangaindrano","MG25214151","Matanga",47.5523,-23.5231,"CSB2",289.972747802734,880
"MG25214","Vangaindrano","MG25214190","Ranomena",47.2672,-23.4245,"CSB2",310.452392578125,881
"MG25214","Vangaindrano","MG25214070","Soamanova",47.602,-23.2972,"CSB2",175.959487915039,882
"MG25214","Vangaindrano","MG25214032","Tsianofana",47.5444,-23.3801,"CSB2",169.340972900391,883
"MG25214","Vangaindrano","MG25214050","Tsiately",47.7025,-23.3172,"CSB2",86.5075454711914,884
"MG25214","Vangaindrano","MG25214171","Vohipaho",47.5085,-23.5462,"CSB2",170.294616699219,887
"MG25214","Vangaindrano","MG25214111","Vohitrambo",47.5283,-23.2687,"CSB2",125.331611633301,888
"MG25217","Vondrozo","MG25217013","Anandravy",47.3789,-22.9154,"CSB2",17.6281261444092,890
"MG25217","Vondrozo","MG25217170","Andakana",47.4575,-22.5265,"CSB2",91.3061904907227,891
"MG25217","Vondrozo","MG25217072","Antokonala",47.3984,-23.0044,"CSB2",26.0426330566406,892
"MG25217","Vondrozo","MG25217052","Iamonta",47.4175,-22.7239,"CSB2",42.8744163513184,893
"MG25217","Vondrozo","MG25217130","Ivato",47.2766,-22.4341,"CSB2",62.1776390075684,894
"MG25217","Vondrozo","MG25217111","Karianga",47.3724,-22.4275,"CSB2",1025.39465332031,895
"MG25217","Vondrozo","MG25217030","Mahatsinjo",47.4491,-22.7336,"CSB2",240.386444091797,897
"MG25217","Vondrozo","MG25217150","Mahavelo",47.3729,-22.3713,"CSB2",125.847915649414,898
"MG25217","Vondrozo","MG25217090","Ambohimana",47.306,-22.6164,"CSB2",80.0128707885742,899
"MG25217","Vondrozo","MG25217012","Manambidala",47.2711,-22.733,"CSB2",169.328094482422,900
"MG25217","Vondrozo","MG25217112","Manato",47.4878,-22.4112,"CSB2",21.6965045928955,901
"MG25217","Vondrozo","MG25217191","Moroteza",47.193,-22.2881,"CSB2",328.9833984375,902
"MG25217","Vondrozo","MG25217192","Vohiboreka",47.2919,-22.3269,"CSB2",134.019943237305,903
"MG25217","Vondrozo","MG25217071","Vohimary",47.283,-22.9769,"CSB2",207.855941772461,904
"MG24216","Ihosy","MG24216131","Ambatolahy",45.838,-22.487,"CSB2",16.9771900177002,906
"MG24216","Ihosy","MG24216032","Ambia",46.1912,-22.3678,"CSB2",38.479248046875,907
"MG24216","Ihosy","MG24216090","Analaliry",46.2291,-22.6136,"CSB2",96.8688812255859,908
"MG24216","Ihosy","MG24216210","Analavoka",46.4881,-22.544,"CSB2",75.8429183959961,909
"MG24216","Ihosy","MG24216192","Andiolava",45.6238,-22.5025,"CSB2",185.357086181641,910
"MG24216","Ihosy","MG24216031","Ankily",46.0995,-22.3862,"CSB2",356.449066162109,911
"MG24216","Ihosy","MG24216232","Ilakaka",45.3472,-22.7681,"CSB2",116.884101867676,913
"MG24216","Ihosy","MG24216250","Menamaty Iloto",45.3823,-21.9624,"CSB2",160.284271240234,914
"MG24216","Ihosy","MG24216050","Irina",46.102,-22.4287,"CSB2",145.247955322266,915
"MG24216","Ihosy","MG24216110","Mahasoa",46.0944,-22.1966,"CSB2",1125.92626953125,916
"MG24216","Ihosy","MG24216231","Ranohira",45.2236,-22.695,"CSB2",3852.61352539062,918
"MG24216","Ihosy","MG24216070","Sahambano",46.2812,-22.4884,"CSB2",156.904357910156,919
"MG24216","Ihosy","MG24216170","Sakalalina",46.4817,-22.3405,"CSB2",92.3379898071289,920
"MG24216","Ihosy","MG24216191","Satrokala",45.7094,-22.3331,"CSB2",342.667694091797,921
"MG24216","Ihosy","MG24216132","Soamatasy",46.002,-22.668,"CSB2",2.49450969696045,922
"MG24216","Ihosy","MG24216151","Zazafotsy",46.363,-22.2092,"CSB2",66.6766662597656,923
"MG24221","Iakora","MG24221050","Begogo",46.7064,-23.4915,"CSB2",51.1913108825684,924
"MG24221","Iakora","MG24221030","Ranotsara Nord",46.5977,-22.804,"CSB2",233.536651611328,926
"MG24218","Ivohibe","MG24218030","Antambohobe",46.7749,-22.311,"CSB2",21.5286235809326,927
"MG24218","Ivohibe","MG24218070","Ivongo",47.0468,-22.4795,"CSB2",25.2027416229248,929
"MG24218","Ivohibe","MG24218050","Maropaika",46.9753,-22.7083,"CSB2",66.0441055297852,930
"MG23210","Manakara Atsimo","MG23210153","Ambahatrazo",47.8989,-21.8584,"CSB2",35.6349449157715,931
"MG23210","Manakara Atsimo","MG23210231","Ambahive",47.7409,-22.1906,"CSB2",679.745056152344,932
"MG23210","Manakara Atsimo","MG23210233","Ambalaroka",47.7304,-22.1518,"CSB2",1370.5,933
"MG23210","Manakara Atsimo","MG23210410","Ambalavero",47.804,-21.8117,"CSB2",139.475921630859,934
"MG23210","Manakara Atsimo","MG23210232","Ambandrika",47.7245,-22.2167,"CSB2",313.232604980469,935
"MG23210","Manakara Atsimo","MG23210070","Ambila",47.9657,-22.0025,"CSB2",251.894256591797,936
"MG23210","Manakara Atsimo","MG23210171","Amboanjo",47.8573,-22.0067,"CSB2",1140.18579101562,937
"MG23210","Manakara Atsimo","MG23210430","Amborondra",47.7768,-21.9151,"CSB2",466.879089355469,938
"MG23210","Manakara Atsimo","MG23210312","Ambotaka",48.0459,-21.7526,"CSB2",255.084991455078,939
"MG23210","Manakara Atsimo","MG23210532","Ampasimboraka",47.6363,-21.67,"CSB2",68.5197525024414,940
"MG23210","Manakara Atsimo","MG23210490","Ampasimpotsy Sud",47.7561,-21.9413,"CSB2",244.369232177734,941
"MG23210","Manakara Atsimo","MG23210272","Analavory",47.9598,-21.7151,"CSB2",37.1917915344238,942
"MG23210","Manakara Atsimo","MG23210172","Anorombato",47.7909,-22.0188,"CSB2",926.853881835938,943
"MG23210","Manakara Atsimo","MG23210052","Anosiala",48.0008,-22.0424,"CSB2",103.757926940918,944
"MG23210","Manakara Atsimo","MG23210510","Anteza",47.8712,-21.669,"CSB2",395.69775390625,945
"MG23210","Manakara Atsimo","MG23210291","Bekatra",47.7199,-22.1104,"CSB2",524.52392578125,946
"MG23210","Manakara Atsimo","MG23210390","Fenomby",47.774,-21.7677,"CSB2",449.117828369141,947
"MG23210","Manakara Atsimo","MG23210212","Vatana",47.7458,-22.2343,"CSB2",851.784912109375,948
"MG23210","Manakara Atsimo","MG23210472","Kianjanomby",47.8055,-21.7369,"CSB2",252.710479736328,949
"MG23210","Manakara Atsimo","MG23210211","Lokomby",47.7466,-22.1841,"CSB2",818.600891113281,950
"MG23210","Manakara Atsimo","MG23210451","Mahabako",47.7164,-21.7532,"CSB2",579.329223632812,951
"MG23210","Manakara Atsimo","MG23210471","Mahamaibe",47.891,-21.735,"CSB2",41.0343284606934,952
"MG23210","Manakara Atsimo","MG23210032","Mangatsiotra",47.9237,-22.1948,"CSB2",20.6798572540283,954
"MG23210","Manakara Atsimo","MG23210051","Marofarihy",47.9632,-22.0299,"CSB2",114.692192077637,955
"MG23210","Manakara Atsimo","MG23210330","Mavorano",47.9415,-21.7796,"CSB2",124.944061279297,956
"MG23210","Manakara Atsimo","MG23210271","Mitanty",47.9994,-21.7287,"CSB2",535.134826660156,957
"MG23210","Manakara Atsimo","MG23210110","Mizilo Gara",47.9194,-21.9269,"CSB2",326.906311035156,958
"MG23210","Manakara Atsimo","MG23210313","Nihaonana",47.9944,-21.7425,"CSB2",359.704193115234,959
"MG23210","Manakara Atsimo","MG23210452","Onilahy",47.6292,-21.7073,"CSB2",85.5262680053711,960
"MG23210","Manakara Atsimo","MG23210152","Sahanambohitra",47.8019,-21.8671,"CSB2",171.90380859375,961
"MG23210","Manakara Atsimo","MG23210531","Saharefo",47.6875,-21.6716,"CSB2",85.7492752075195,962
"MG23210","Manakara Atsimo","MG23210151","Sahasinaka",47.8332,-21.8103,"CSB2",816.02197265625,963
"MG23210","Manakara Atsimo","MG23210213","Sakoana",47.8131,-22.2079,"CSB2",301.718139648438,964
"MG23210","Manakara Atsimo","MG23210090","Sorombo",47.8643,-22.1436,"CSB2",78.5607604980469,965
"MG23210","Manakara Atsimo","MG23210031","Tataho",47.9734,-22.137,"CSB2",312.346160888672,966
"MG23210","Manakara Atsimo","MG23210292","Vinanitelo",47.7381,-22.0157,"CSB2",364.192626953125,967
"MG23210","Manakara Atsimo","MG23210370","Vohilava",47.8798,-21.7842,"CSB2",363.102508544922,968
"MG23210","Manakara Atsimo","MG23210250","Vohimanitra",47.6967,-21.704,"CSB2",406.318267822266,969
"MG23210","Manakara Atsimo","MG23210351","Vohimasina Nord",48.1136,-21.7728,"CSB2",83.7415466308594,970
"MG23210","Manakara Atsimo","MG23210352","Vohimasina Sud",48.1246,-21.7991,"CSB2",337.088806152344,971
"MG23210","Manakara Atsimo","MG23210190","Vohimasy",47.7938,-22.1054,"CSB2",695.610046386719,972
"MG23206","Ifanadiana","MG23206130","Ambohimanga Du Sud",47.593,-20.8771,"CSB2",517.821411132812,973
"MG23206","Ifanadiana","MG23206090","Ambohimiera",47.5099,-21.0534,"CSB2",66.4712142944336,974
"MG23206","Ifanadiana","MG23206150","Analampasina",47.5444,-20.8374,"CSB2",257.642303466797,975
"MG23206","Ifanadiana","MG23206071","Androrangavola",47.7178,-21.5029,"CSB2",207.345687866211,976
"MG23206","Ifanadiana","MG23206012","Antaretra",47.778,-21.3559,"CSB2",247.433563232422,977
"MG23206","Ifanadiana","MG23206110","Antsindra",47.7319,-20.9879,"CSB2",120.647262573242,978
"MG23206","Ifanadiana","MG23206170","Fasintsara",47.6922,-20.7176,"CSB2",147.239624023438,979
"MG23206","Ifanadiana","MG23206052","Kelilalina",47.5537,-21.2875,"CSB2",349.311706542969,981
"MG23206","Ifanadiana","MG23206190","Maroharatra",47.7691,-20.7326,"CSB2",122.420837402344,982
"MG23206","Ifanadiana","MG23206072","Marotoko",47.7613,-21.5947,"CSB2",55.0553703308105,983
"MG23206","Ifanadiana","MG23206051","Ranomafana",47.4552,-21.2582,"CSB2",408.463562011719,984
"MG23206","Ifanadiana","MG23206030","Tsaratanana",47.6374,-21.1773,"CSB2",275.667816162109,985
"MG23211","Ikongo","MG23211031","Ambatofotsy",47.4907,-21.7567,"CSB2",183.125122070312,987
"MG23211","Ikongo","MG23211052","Ambinanitromby",47.5229,-21.6758,"CSB2",256.801696777344,988
"MG23211","Ikongo","MG23211092","Ambohimisafy",47.5363,-21.4805,"CSB2",68.9396362304688,989
"MG23211","Ikongo","MG23211012","Ambolomadinika",47.42,-21.9234,"CSB2",85.1136169433594,990
"MG23211","Ikongo","MG23211032","Belemoka",47.602,-21.8249,"CSB2",16.8271865844727,992
"MG23211","Ikongo","MG23211071","Ifanirea",47.4767,-22.1906,"CSB2",553.602600097656,993
"MG23211","Ikongo","MG23211113","Kalafotsy",47.3151,-22.2913,"CSB2",14.0972461700439,994
"MG23211","Ikongo","MG23211051","Manampatrana",47.582,-21.665,"CSB2",308.823791503906,995
"MG23211","Ikongo","MG23211033","Maromiandra",47.5211,-21.706,"CSB2",666.840148925781,996
"MG23211","Ikongo","MG23211073","Sahalanona",47.6202,-22.0556,"CSB2",46.3683090209961,997
"MG23211","Ikongo","MG23211072","Tanakambana",47.4782,-22.0729,"CSB2",378.331787109375,998
"MG23211","Ikongo","MG23211091","Tolongoina",47.5195,-21.5614,"CSB2",511.363403320312,999
"MG23211","Ikongo","MG23211112","Antodinga",47.415,-22.1495,"CSB2",164.803970336914,1000
"MG23209","Mananjary","MG23209370","Ambalahosy Nord",47.8782,-21.2982,"CSB2",163.694000244141,1001
"MG23209","Mananjary","MG23209391","Ambodinonoka",47.8921,-20.979,"CSB2",239.122604370117,1002
"MG23209","Mananjary","MG23209190","Ambohimiarina II",48.0114,-21.374,"CSB2",90.6103515625,1003
"MG23209","Mananjary","MG23209310","Ambohinihaonana",47.9104,-21.1964,"CSB2",601.284240722656,1004
"MG23209","Mananjary","MG23209252","Ambohitsara Est",48.4619,-20.8674,"CSB2",1140.99389648438,1005
"MG23209","Mananjary","MG23209290","Andonabe",47.9539,-21.4611,"CSB2",29.704870223999,1006
"MG23209","Mananjary","MG23209210","Andranambolava",48.2751,-20.9061,"CSB2",488.633270263672,1007
"MG23209","Mananjary","MG23209332","Andranomavo",48.2023,-20.9305,"CSB2",284.433624267578,1008
"MG23209","Mananjary","MG23209032","Ankatafana",48.2797,-21.4151,"CSB2",236.238952636719,1009
"MG23209","Mananjary","MG23209450","Anosimparihy",47.9933,-21.5052,"CSB2",218.320678710938,1010
"MG23209","Mananjary","MG23209150","Antsenavolo",48.0495,-21.392,"CSB2",466.611511230469,1011
"MG23209","Mananjary","MG23209410","Kianjavato",47.8659,-21.3808,"CSB2",184.607391357422,1012
"MG23209","Mananjary","MG23209050","Mahatsara Sud",48.2933,-21.1389,"CSB2",28.5169849395752,1013
"MG23209","Mananjary","MG23209270","Mahavoky Nord",48.3013,-20.8468,"CSB2",261.105560302734,1014
"MG23209","Mananjary","MG23209251","Mahela",48.4398,-20.9683,"CSB2",100.350952148438,1015
"MG23209","Mananjary","MG23209470","Manakana Nord",47.8488,-21.3249,"CSB2",295.627593994141,1016
"MG23209","Mananjary","MG23209331","Marofototra",48.1542,-20.8529,"CSB2",208.666458129883,1018
"MG23209","Mananjary","MG23209110","Marokarima",48.1395,-21.2216,"CSB2",158.996536254883,1019
"MG23209","Mananjary","MG23209170","Marosangy",48.2851,-21.0063,"CSB2",233.711013793945,1020
"MG23209","Mananjary","MG23209130","Morafeno",48.1803,-21.0975,"CSB2",637.981018066406,1021
"MG23209","Mananjary","MG23209490","Namorona",48.1838,-21.6389,"CSB2",952.2587890625,1022
"MG23209","Mananjary","MG23209430","Sandrohy",47.8952,-21.5988,"CSB2",338.753234863281,1023
"MG23209","Mananjary","MG23209031","Tsaravary",48.3005,-21.2465,"CSB2",1065.17175292969,1024
"MG23209","Mananjary","MG23209070","Tsiatosika",48.2264,-21.185,"CSB2",381.112243652344,1025
"MG23209","Mananjary","MG23209350","Vatohandrina",47.8425,-21.5534,"CSB2",44.091480255127,1026
"MG42409","Port-Berge (Boriziny-Vaovao)","MG42409112","Ambodisakoana",47.9692,-15.3926,"CSB2",116.479103088379,1027
"MG42409","Port-Berge (Boriziny-Vaovao)","MG42409172","Ambodivongo",48.2197,-15.6593,"CSB2",47.6698379516602,1028
"MG42409","Port-Berge (Boriziny-Vaovao)","MG42409092","Amparihy",47.7171,-15.7516,"CSB2",598.7138671875,1029
"MG42409","Port-Berge (Boriziny-Vaovao)","MG42409091","Andranomeva",47.7637,-15.7955,"CSB2",45.5203285217285,1030
"MG42409","Port-Berge (Boriziny-Vaovao)","MG42409111","Leanja",47.9151,-15.5431,"CSB2",235.34114074707,1031
"MG42409","Port-Berge (Boriziny-Vaovao)","MG42409132","Maevaranohely",47.1898,-15.8843,"CSB2",47.8778610229492,1032
"MG42409","Port-Berge (Boriziny-Vaovao)","MG42409150","Marovato",48.0767,-15.793,"CSB2",127.729705810547,1033
"MG42409","Port-Berge (Boriziny-Vaovao)","MG42409050","Tsarahasina",47.5697,-15.7599,"CSB2",185.979644775391,1035
"MG42409","Port-Berge (Boriziny-Vaovao)","MG42409032","Tsaratanana I",47.8495,-15.6414,"CSB2",225.589340209961,1036
"MG42409","Port-Berge (Boriziny-Vaovao)","MG42409070","Tsiningia",47.4591,-15.4813,"CSB2",368.592468261719,1037
"MG42409","Port-Berge (Boriziny-Vaovao)","MG42409131","Tsinjomitondraka",47.1199,-15.66,"CSB2",36.9027862548828,1038
"MG42423","Mampikony","MG42423112","Ambodihazoambo",47.9161,-16.047,"CSB2",150.640594482422,1039
"MG42423","Mampikony","MG42423051","Ambohitoaka",47.6538,-16.0066,"CSB2",544.177978515625,1040
"MG42423","Mampikony","MG42423111","Ampasimatera",47.7362,-15.9378,"CSB2",2585.31176757812,1041
"MG42423","Mampikony","MG42423071","Bekoratsaka",47.4921,-16.1092,"CSB2",46.3850593566895,1042
"MG42423","Mampikony","MG42423073","Betaramahamay",47.4826,-15.9498,"CSB2",73.9512176513672,1043
"MG42423","Mampikony","MG42423090","Komajia",47.7913,-16.1992,"CSB2",99.0114212036133,1044
"MG42423","Mampikony","MG42423072","Malakialina",47.4202,-16.2786,"CSB2",453.357818603516,1045
"MG42423","Mampikony","MG42423030","Mampikony II",47.5431,-16.284,"CSB2",73.2024841308594,1047
"MG31301","Toamasina I","MG31301001","Ambodimanga",49.4083,-18.1537,"CSB2",15106.5791015625,1050
"MG31301","Toamasina I","MG31301002","Anjoma",49.3927,-18.1735,"CSB2",4180.2392578125,1051
"MG31301","Toamasina I","MG31301004","Tanambao V",49.3995,-18.146,"CSB2",31830.890625,1052
"MG31310","Toamasina II","MG31310150","Ambodilazana",49.1791,-18.1286,"CSB2",247.47151184082,1053
"MG23207","Nosy-Varika","MG23207031","Ambahy",48.4793,-20.7754,"CSB2",159.728134155273,1054
"MG23207","Nosy-Varika","MG23207113","Ambakobe",48.0875,-20.6877,"CSB2",107.688247680664,1055
"MG23207","Nosy-Varika","MG23207192","Ambodiara",48.0334,-20.6262,"CSB2",21.4947719573975,1056
"MG23207","Nosy-Varika","MG23207151","Ambodilafa",48.1804,-20.5067,"CSB2",185.68196105957,1057
"MG23207","Nosy-Varika","MG23207052","Ambodirian'i Sahafary",48.4263,-20.5014,"CSB2",252.315963745117,1058
"MG23207","Nosy-Varika","MG23207171","Ampasinambo",47.9933,-20.5252,"CSB2",131.98583984375,1059
"MG23207","Nosy-Varika","MG23207032","Andara",48.4313,-20.8425,"CSB2",89.2566909790039,1060
"MG23207","Nosy-Varika","MG23207152","Androrangavola",48.2392,-20.5285,"CSB2",275.760925292969,1061
"MG23207","Nosy-Varika","MG23207173","Angodongodona",47.8348,-20.57,"CSB2",351.557434082031,1062
"MG23207","Nosy-Varika","MG23207172","Antanambao",47.8794,-20.5511,"CSB2",304.400573730469,1063
"MG23207","Nosy-Varika","MG23207191","Befody",47.937,-20.7789,"CSB2",323.759094238281,1064
"MG23207","Nosy-Varika","MG23207010","Nosy Varika",48.5352,-20.5879,"CSB2",235.80615234375,1066
"MG23207","Nosy-Varika","MG23207070","Sahavato",48.3279,-20.5977,"CSB2",206.233367919922,1067
"MG23207","Nosy-Varika","MG23207130","Soavina",48.2889,-20.3873,"CSB2",322.238861083984,1068
"MG23207","Nosy-Varika","MG23207112","Vohidroa",48.2075,-20.695,"CSB2",237.049713134766,1069
"MG23207","Nosy-Varika","MG23207111","Vohitrandriana",48.2681,-20.7611,"CSB2",352.866363525391,1071
"MG23212","Vohipeno","MG23212090","Ankarimbary",47.8044,-22.3002,"CSB2",1077.24353027344,1073
"MG23212","Vohipeno","MG23212053","Anoloka",47.893,-22.3378,"CSB2",209.924621582031,1074
"MG23212","Vohipeno","MG23212230","Ilakatra",47.6716,-22.3469,"CSB2",587.022094726562,1076
"MG23212","Vohipeno","MG23212051","Ivato",47.8681,-22.3865,"CSB2",905.5126953125,1077
"MG23212","Vohipeno","MG23212110","Lanivo",47.8138,-22.2951,"CSB2",1999.37390136719,1078
"MG23212","Vohipeno","MG23212070","Mahabo",47.8007,-22.3244,"CSB2",257.595855712891,1079
"MG23212","Vohipeno","MG23212150","Mahasoabe",47.7688,-22.2843,"CSB2",1473.87170410156,1080
"MG23212","Vohipeno","MG23212270","Mahazoarivo",47.5587,-22.3383,"CSB2",374.654144287109,1081
"MG23212","Vohipeno","MG23212130","Nato",47.8446,-22.3003,"CSB2",654.211059570312,1082
"MG23212","Vohipeno","MG23212171","Onjatsy",47.8976,-22.4064,"CSB2",1073.43383789062,1083
"MG23212","Vohipeno","MG23212250","Sahalava",47.6468,-22.2675,"CSB2",119.344650268555,1084
"MG23212","Vohipeno","MG23212172","Vohilany",47.8834,-22.4073,"CSB2",299.988433837891,1086
"MG23212","Vohipeno","MG23212032","Vohindava",47.8657,-22.4153,"CSB2",1294.54125976562,1087
"MG23212","Vohipeno","MG23212010","Vohipeno",47.8388,-22.3562,"CSB2",2192.61279296875,1088
"MG23212","Vohipeno","MG23212031","Vohitrindry",47.8318,-22.3806,"CSB2",658.881469726562,1089
"MG41401","Mahajanga I","MG41401002","Mahabibo",46.3263,-15.71,"CSB2",13081.681640625,1099
"MG41415","Mahajanga II","MG41415092","Ambalabe Befanjava",46.9515,-15.7754,"CSB2",232.337493896484,1101
"MG41415","Mahajanga II","MG41415031","Ambalakida",46.7136,-15.8154,"CSB2",4.31673383712769,1102
"MG41415","Mahajanga II","MG41415072","Andranoboka",46.8892,-15.6348,"CSB2",450.385070800781,1103
"MG41415","Mahajanga II","MG41415071","Bekobay",46.9266,-15.8184,"CSB2",557.688415527344,1104
"MG41415","Mahajanga II","MG41415032","Betsako",46.5325,-15.5994,"CSB2",24.022575378418,1105
"MG41415","Mahajanga II","MG41415011","Belobaka",46.3943,-15.7048,"CSB2",498.543182373047,1106
"MG41415","Mahajanga II","MG41415050","Mariarano",46.6947,-15.4818,"CSB2",42.1427764892578,1109
"MG41405","Ambato Boeni","MG41405130","Ankirihitra",46.5827,-16.6125,"CSB2",31.5183544158936,1110
"MG41405","Ambato Boeni","MG41405112","Ambondromamy",47.1578,-16.4365,"CSB2",377.144714355469,1112
"MG41405","Ambato Boeni","MG41405052","Andranofasika",46.8467,-16.3365,"CSB2",429.333312988281,1113
"MG41405","Ambato Boeni","MG41405150","Andranomamy",47.1241,-16.5378,"CSB2",348.072662353516,1114
"MG41405","Ambato Boeni","MG41405090","Anjiajia",46.9498,-16.4609,"CSB2",2246.123046875,1115
"MG41405","Ambato Boeni","MG41405051","Ankijabe",46.7656,-16.4136,"CSB2",413.553985595703,1116
"MG41405","Ambato Boeni","MG41405070","Madirovalo",46.5467,-16.4439,"CSB2",2961.58422851562,1118
"MG41405","Ambato Boeni","MG41405170","Manerinerina",47.297,-16.2594,"CSB2",290.865051269531,1119
"MG41405","Ambato Boeni","MG41405190","Sitampiky",46.1078,-16.6756,"CSB2",65.4226837158203,1120
"MG41405","Ambato Boeni","MG41405111","Tsaramandroso",47.0465,-16.3639,"CSB2",264.699279785156,1121
"MG41406","Marovoay","MG41406031","Marovoay Banlieue",46.6269,-15.9945,"CSB2",190.063415527344,1123
"MG41406","Marovoay","MG41406070","Tsararano",46.6721,-16.1779,"CSB2",1076.96374511719,1125
"MG41407","Mitsinjo","MG41407092","Ambarimaninga",46.0037,-16.4952,"CSB2",152.300552368164,1127
"MG41407","Mitsinjo","MG41407030","Antongomena Bevary",45.9189,-15.9239,"CSB2",25.8792190551758,1128
"MG41407","Mitsinjo","MG41407012","Antseza",45.8623,-16.2148,"CSB2",13.9187870025635,1129
"MG41407","Mitsinjo","MG41407091","Bekipay",46.1257,-16.2533,"CSB2",25.9715900421143,1130
"MG41407","Mitsinjo","MG41407070","Katsepy",46.2377,-15.7637,"CSB2",386.495849609375,1131
"MG41403","Soalala","MG41403030","Ambohipaky",44.9744,-16.4234,"CSB2",191.978485107422,1134
"MG41403","Soalala","MG41403050","Andranomavo",45.5639,-16.5787,"CSB2",129.296951293945,1135
"MG41406","Marovoay","MG41406051","Ambolomoty",46.6983,-16.1601,"CSB2",1592.28845214844,1138
"MG41406","Marovoay","MG41406158","Ankaraobato",46.1884,-16.183,"CSB2",74.7316741943359,1139
"MG41406","Marovoay","MG41406090","Ankazomborona",46.7571,-16.114,"CSB2",2111.83984375,1140
"MG41406","Marovoay","MG41406033","Anosinalainolona",46.6215,-16.1838,"CSB2",236.259872436523,1141
"MG41406","Marovoay","MG41406032","Antanambao Andranolava",46.6945,-15.9955,"CSB2",249.608444213867,1142
"MG41406","Marovoay","MG41406112","Antanimasaka",46.539,-16.2284,"CSB2",265.165008544922,1144
"MG41406","Marovoay","MG41406130","Bemaharivo",46.4004,-16.1436,"CSB2",20.5471591949463,1145
"MG41406","Marovoay","MG41406111","Manaratsandry",46.5066,-16.1892,"CSB2",5684.40966796875,1146
"MG41406","Marovoay","MG41406052","Marovoay",46.7544,-16.1821,"CSB2",271.384185791016,1147
"MG32305","Fenerive Est","MG32305090","Ambatoharanana",49.3089,-17.2405,"CSB2",72.9621124267578,1148
"MG32305","Fenerive Est","MG32305150","Ampasimbe Manantsatrana",49.4799,-17.0945,"CSB2",329.848846435547,1149
"MG32305","Fenerive Est","MG32305070","Ampasina Maningory",49.415,-17.2137,"CSB2",551.163513183594,1150
"MG32305","Fenerive Est","MG32305210","Antsiatsiaka",49.3736,-17.0481,"CSB2",162.791259765625,1151
"MG32305","Fenerive Est","MG32305050","Mahambo",49.4537,-17.4868,"CSB2",619.554870605469,1153
"MG32305","Fenerive Est","MG32305170","Miorimivalana",49.1666,-17.1686,"CSB2",30.0669231414795,1154
"MG32305","Fenerive Est","MG32305130","Saranambana",49.1723,-17.2723,"CSB2",342.088287353516,1155
"MG32305","Fenerive Est","MG32305110","Vohilengo",49.2659,-17.289,"CSB2",350.740600585938,1156
"MG32305","Fenerive Est","MG32305190","Vohipeno",49.295,-17.1678,"CSB2",127.884346008301,1157
"MG32304","Mananara-Avaratra","MG32304093","Ambatoharanana",49.5819,-16.4266,"CSB2",689.13427734375,1158
"MG32304","Mananara-Avaratra","MG32304070","Ambodiampana",49.6148,-16.1028,"CSB2",155.494918823242,1159
"MG32304","Mananara-Avaratra","MG32304012","Ambodivoanio",49.6589,-16.183,"CSB2",380.454895019531,1160
"MG32304","Mananara-Avaratra","MG32304031","Antanambaobe",49.6684,-16.2621,"CSB2",249.36457824707,1161
"MG32304","Mananara-Avaratra","MG32304110","Antanambe",49.8487,-16.4332,"CSB2",34.8732109069824,1162
"MG32318","Soanierana Ivongo","MG32318070","Andapafito",49.3806,-16.9109,"CSB2",319.699523925781,1165
"MG32318","Soanierana Ivongo","MG32318090","Ambahoabe",49.5054,-16.7712,"CSB2",57.9765777587891,1166
"MG32318","Soanierana Ivongo","MG32318050","Ambodiampana",49.5689,-16.823,"CSB2",307.788940429688,1167
"MG32318","Soanierana Ivongo","MG32318030","Antanifotsy",49.6135,-16.875,"CSB2",192.553787231445,1168
"MG32318","Soanierana Ivongo","MG32318012","Fotsialanana",49.484,-16.9222,"CSB2",1044.36584472656,1169
"MG32318","Soanierana Ivongo","MG32318110","Manompana",49.7429,-16.6899,"CSB2",351.765197753906,1170
"MG32315","Vavatenina","MG32315092","Ambatoharanana",49.119,-17.3437,"CSB2",150.192108154297,1171
"MG32315","Vavatenina","MG32315050","Ambohibe",49.1085,-17.4365,"CSB2",358.487213134766,1172
"MG32315","Vavatenina","MG32315070","Ampasimazava",49.2989,-17.4085,"CSB2",290.402191162109,1173
"MG32315","Vavatenina","MG32315110","Andasibe",49.0763,-17.3584,"CSB2",107.357711791992,1174
"MG32315","Vavatenina","MG32315091","Anjahambe",49.1464,-17.3848,"CSB2",390.73095703125,1175
"MG32315","Vavatenina","MG32315030","Maromitety",49.2851,-17.4383,"CSB2",436.866180419922,1176
"MG32315","Vavatenina","MG32315130","Miarinarivo",49.1733,-17.6437,"CSB2",174.241775512695,1177
"MG32315","Vavatenina","MG32315150","Sahatavy",48.9963,-17.4521,"CSB2",320.269805908203,1178
"MG44422","Morafenobe","MG44422050","Beravina",45.2273,-18.1783,"CSB2",35.4023933410645,1180
"MG42413","Antsohihy","MG42413171","Ambodimadiro",48.0243,-14.5471,"CSB2",80.6170806884766,1181
"MG42413","Antsohihy","MG42413130","Ambodimanary",47.9992,-15.2291,"CSB2",168.873764038086,1182
"MG42413","Antsohihy","MG42413090","Ambodimandresy",48.0954,-14.7863,"CSB2",239.848297119141,1183
"MG42413","Antsohihy","MG42413051","Ampandriankilandy",48.0669,-14.9383,"CSB2",163.850738525391,1184
"MG42413","Antsohihy","MG42413070","Anahidrano",47.8902,-15.0175,"CSB2",467.922149658203,1185
"MG42413","Antsohihy","MG42413172","Andreba",48.1891,-14.5964,"CSB2",74.5263824462891,1186
"MG42413","Antsohihy","MG42413052","Anjalazala",48.1744,-15.0132,"CSB2",45.7644157409668,1187
"MG42413","Antsohihy","MG42413110","Anjiamangirana",47.7724,-15.1695,"CSB2",224.656402587891,1188
"MG42413","Antsohihy","MG42413030","Ankerika",47.8753,-14.9587,"CSB2",69.2305679321289,1189
"MG32304","Mananara-Avaratra","MG32304050","Manambolosy",49.6715,-16.0409,"CSB2",350.039215087891,1190
"MG32304","Mananara-Avaratra","MG32304091","Sandrakatsy",49.6162,-16.3421,"CSB2",552.094116210938,1192
"MG32304","Mananara-Avaratra","MG32304130","Saromaona",49.329,-16.159,"CSB2",67.0648803710938,1193
"MG32304","Mananara-Avaratra","MG32304032","Antanananivo",49.7196,-16.2844,"CSB2",332.111114501953,1194
"MG32303","Maroantsetra","MG32303090","Ambinanitelo",49.5829,-15.3503,"CSB2",1068.61926269531,1196
"MG32303","Maroantsetra","MG32303051","Andranofotsy",49.8201,-15.4328,"CSB2",206.29704284668,1197
"MG32303","Maroantsetra","MG32303153","Androndrono",49.1996,-15.7656,"CSB2",10.2874965667725,1198
"MG32303","Maroantsetra","MG32303111","Anjahana",49.8665,-15.4121,"CSB2",698.941589355469,1199
"MG43404","Maevatanana","MG43404112","Ambalajia",46.9284,-16.7856,"CSB2",141.133102416992,1200
"MG43404","Maevatanana","MG43404131","Ambalanjanakomby",47.0711,-16.6994,"CSB2",199.261474609375,1201
"MG43404","Maevatanana","MG43404171","Andriba",46.9299,-17.6044,"CSB2",350.523162841797,1202
"MG43404","Maevatanana","MG43404092","Antanimbary",46.855,-17.1851,"CSB2",266.639739990234,1203
"MG43404","Maevatanana","MG43404091","Antsiafabositra",46.9552,-17.3082,"CSB2",162.450942993164,1204
"MG43404","Maevatanana","MG43404050","Bemokotra",46.6982,-17.06,"CSB2",196.145126342773,1205
"MG43404","Maevatanana","MG43404031","Maevatanana II",46.8459,-16.9007,"CSB2",206.412796020508,1206
"MG43404","Maevatanana","MG43404192","Madiromirafy",46.8419,-16.8411,"CSB2",81.4216690063477,1207
"MG43404","Maevatanana","MG43404070","Mahazoma",46.5705,-17.1695,"CSB2",313.52734375,1209
"MG43404","Maevatanana","MG43404191","Mangabe",46.8229,-16.7232,"CSB2",230.258926391602,1210
"MG43404","Maevatanana","MG43404173","Morafeno",47.2333,-17.6447,"CSB2",33.0227813720703,1212
"MG43416","Kandreho","MG43416052","Andasibe",46.2443,-17.6605,"CSB2",59.201587677002,1213
"MG43416","Kandreho","MG43416013","Behazomaty",46.278,-17.4661,"CSB2",8.88929176330566,1215
"MG43416","Kandreho","MG43416051","Betaimboay",46.135,-17.7671,"CSB2",5.26487016677856,1216
"MG43416","Kandreho","MG43416012","Ambaliha",46.005,-17.4508,"CSB2",23.9120178222656,1218
"MG43408","Tsaratanana","MG43408170","Ambakireny",47.8403,-17.629,"CSB2",253.272003173828,1219
"MG43408","Tsaratanana","MG43408130","Ampandrana",47.8423,-17.312,"CSB2",39.8947868347168,1220
"MG43408","Tsaratanana","MG43408030","Bekapaika",47.5579,-16.7472,"CSB2",353.626586914062,1221
"MG43408","Tsaratanana","MG43408070","Betrandraka",47.5522,-17.0353,"CSB2",68.3210830688477,1222
"MG43408","Tsaratanana","MG43408190","Brieville",47.6477,-17.4775,"CSB2",9.93519115447998,1223
"MG43408","Tsaratanana","MG43408210","Sakoamadinika",48.0362,-17.1992,"CSB2",178.501998901367,1224
"MG43408","Tsaratanana","MG43408110","Sarobaratra",47.3274,-16.4635,"CSB2",4.81686639785767,1225
"MG43408","Tsaratanana","MG43408050","Tsararova",47.6523,-16.7131,"CSB2",24.1695022583008,1226
"MG43408","Tsaratanana","MG43408090","Keliloha",47.6656,-17.2682,"CSB2",302.751068115234,1228
"MG43408","Tsaratanana","MG43408230","Manakana",47.4611,-17.761,"CSB2",215.01513671875,1229
"MG44421","Maintirano","MG44421050","Andabotoka",44.1308,-18.1091,"CSB2",285.132385253906,1230
"MG44421","Maintirano","MG44421194","Andranovao",44.06,-17.6135,"CSB2",257.240539550781,1231
"MG44421","Maintirano","MG44421090","Andrea",44.122,-17.8931,"CSB2",339.091857910156,1232
"MG44421","Maintirano","MG44421110","Ankisatra",44.1523,-18.2242,"CSB2",27.2601165771484,1233
"MG44421","Maintirano","MG44421210","Antsaidoha Bebao",44.4365,-17.4342,"CSB2",12.6102046966553,1234
"MG44421","Maintirano","MG44421150","Antsondrodava",44.3902,-18.4519,"CSB2",54.6501693725586,1235
"MG44421","Maintirano","MG44421232","Bebaboky Sud",44.4668,-17.1364,"CSB2",31.714807510376,1236
"MG44421","Maintirano","MG44421170","Belitsaky",44.4299,-17.9816,"CSB2",37.2949333190918,1237
"MG44421","Maintirano","MG44421231","Berevo/ranobe",44.2933,-17.2219,"CSB2",256.559783935547,1238
"MG44421","Maintirano","MG44421070","Betanatanana",44.1426,-18.1678,"CSB2",804.036499023438,1239
"MG44421","Maintirano","MG44421030","Mafaijijo",44.0845,-18.0567,"CSB2",78.1920928955078,1240
"MG44421","Maintirano","MG44421130","Marohazo",44.33,-17.669,"CSB2",29.56858253479,1242
"MG44421","Maintirano","MG44421193","Maromavo",44.2993,-17.5794,"CSB2",28.7706470489502,1243
"MG44421","Maintirano","MG44421191","Tambohorano",43.9542,-17.5111,"CSB2",150.862548828125,1244
"MG44421","Maintirano","MG44421192","Veromanga",44.2079,-17.479,"CSB2",13.8714923858643,1245
"MG44417","Ambatomainty","MG44417031","Sarodrano",45.6453,-17.7442,"CSB2",173.20964050293,1246
"MG44420","Antsalova","MG44420090","Bekopaka",44.7928,-19.1476,"CSB2",168.764526367188,1248
"MG44420","Antsalova","MG44420050","Masoarivo",44.3858,-18.925,"CSB2",55.2504463195801,1249
"MG44420","Antsalova","MG44420030","Soahany",44.2096,-18.6752,"CSB2",94.3515701293945,1250
"MG44420","Antsalova","MG44420070","Trangahy",44.5596,-19.1287,"CSB2",51.6040802001953,1251
"MG44402","Besalampy","MG44402072","Ambolodia Sud",44.9768,-17.201,"CSB2",13.744366645813,1252
"MG44402","Besalampy","MG44402012","Ampako",44.8172,-16.7521,"CSB2",42.3704528808594,1253
"MG44402","Besalampy","MG44402090","Ankasakasa Tsibiray",44.868,-16.3476,"CSB2",164.089248657227,1254
"MG44402","Besalampy","MG44402071","Bekodoka",45.1034,-16.9711,"CSB2",77.6573333740234,1255
"MG44402","Besalampy","MG44402110","Mahabe",45.3229,-17.0848,"CSB2",12.1556253433228,1257
"MG44402","Besalampy","MG44402030","Marovoay Sud",44.5896,-16.9742,"CSB2",113.79174041748,1258
"MG44402","Besalampy","MG44402050","Soanenga",44.6127,-16.5056,"CSB2",6.17720937728882,1259
"MG44422","Morafenobe","MG44422030","Andramy",44.7649,-17.9793,"CSB2",2.03111290931702,1261
"MG33314","Moramanga","MG33314110","Morarano Gara",48.2719,-18.7013,"CSB2",267.759094238281,1263
"MG33314","Moramanga","MG33314150","Sabotsy Anjiro",48.0047,-18.9234,"CSB2",235.974868774414,1264
"MG33314","Moramanga","MG33314092","Vodiriana",48.0411,-18.9811,"CSB2",86.9264221191406,1265
"MG32303","Maroantsetra","MG32303070","Ankofa",49.6489,-15.398,"CSB2",1035.93664550781,1266
"MG32303","Maroantsetra","MG32303132","Ankofabe",49.6162,-15.5137,"CSB2",462.423828125,1267
"MG32303","Maroantsetra","MG32303052","Antakotako",49.8023,-15.332,"CSB2",636.528869628906,1268
"MG32303","Maroantsetra","MG32303133","Antsirabe Sahatany",49.5962,-15.4877,"CSB2",734.720520019531,1269
"MG32303","Maroantsetra","MG32303113","Mahalevona",49.9152,-15.4128,"CSB2",2162.59423828125,1270
"MG32303","Maroantsetra","MG32303152","Morafeno",49.4517,-15.707,"CSB2",7.07191944122314,1271
"MG32303","Maroantsetra","MG32303112","Ambanizana",49.9532,-15.6127,"CSB2",400.66650390625,1272
"MG32303","Maroantsetra","MG32303131","Voloina",49.6153,-15.5715,"CSB2",705.378723144531,1273
"MG54502","Manja","MG54502110","Andranopasy",43.7393,-21.279,"CSB2",41.2410736083984,1274
"MG54502","Manja","MG54502090","Ankiliabo",43.8941,-21.7141,"CSB2",817.401000976562,1275
"MG54502","Manja","MG54502050","Anontsibe Centre",44.4685,-21.3758,"CSB2",143.12043762207,1277
"MG52514","Tsihombe","MG52514031","Betanty (Faux Cap)",45.528,-25.5657,"CSB2",178.195541381836,1278
"MG54502","Manja","MG54502030","Beharona",44.3045,-21.5241,"CSB2",17.1632480621338,1279
"MG52514","Tsihombe","MG52514050","Marovato",45.2761,-25.5277,"CSB2",102.837966918945,1280
